事業者,物件名,都道府県,住所,収容台数,円per時,最大料金_24時間,最大料金_夜間,緯度,経度,取得日時,URL
三井のリパーク,三井のリパーク本所２丁目第３駐車場,東京都,東京都墨田区本所２丁目２０ー３,7,660,1400,500,35.704844414056,139.80200041347,2026-06-30T08:56:44.265Z,https://www.repark.jp/parking_user/time/result/detail/?park=REP0014085
三井のリパーク,三井のリパーク福島駅前駐車場,福島県,福島県福島市陣場町１－２４－８,15,300,,,37.756533705466,140.46142617514,2026-06-30T08:56:44.265Z,https://www.repark.jp/parking_user/time/result/detail/?park=REP0002746
三井のリパーク,三井のリパーク世田谷４丁目駐車場,東京都,東京都世田谷区世田谷４丁目６,5,600,,,35.642923434362,139.65299063985,2026-06-30T08:56:44.265Z,https://www.repark.jp/parking_user/time/result/detail/?park=REP0004934
NPC,NPC24H深川2丁目パーキング,東京都,東京都江東区深川2-23-5,8,660,2300,600,35.67690663,139.7997233,2026-06-30T08:56:44.265Z,https://parking.npc-npc.co.jp/p/13/685
NPC,NPC24H亀戸第5パーキング,東京都,東京都江東区亀戸1-35-10,6,880,,700,35.69565422,139.824899,2026-06-30T08:56:44.265Z,https://parking.npc-npc.co.jp/p/13/685
NPC,NPC24H永代1丁目パーキング,東京都,東京都江東区永代1-7-6,19,660,2200,500,35.67428345,139.7887337,2026-06-30T08:56:44.265Z,https://parking.npc-npc.co.jp/p/13/685
NPC,NPC24H東陽2丁目サスセンタービル地下駐車場,東京都,東京都江東区東陽2-4-24,31,1100,,500,35.66823962,139.8172634,2026-06-30T08:56:44.265Z,https://parking.npc-npc.co.jp/p/13/685
NPC,NPC24H東陽5丁目パーキング,東京都,東京都江東区東陽5-3-8,17,880,1700,600,35.67145559,139.811143,2026-06-30T08:56:44.265Z,https://parking.npc-npc.co.jp/p/13/685
NPC,NPC24H森下4丁目第2パーキング,東京都,東京都江東区森下4-19,0,528,1700,500,35.68673539,139.8047616,2026-06-30T08:56:44.265Z,https://parking.npc-npc.co.jp/p/13/685
NPC,NPC24H亀戸第6パーキング,東京都,東京都江東区亀戸2-40-4,2,660,,600,35.70060392,139.823464,2026-06-30T08:56:44.265Z,https://parking.npc-npc.co.jp/p/13/685
NPC,NPC24H亀戸第7パーキング,東京都,東京都江東区亀戸4-19-1,3,528,,,35.701926,139.825596,2026-06-30T08:56:44.265Z,https://parking.npc-npc.co.jp/p/13/685
NPC,NPC24H東陽3丁目パーキング,東京都,東京都江東区東陽3-26-6,4,880,2300,,35.67066868,139.8134285,2026-06-30T08:56:44.265Z,https://parking.npc-npc.co.jp/p/13/685
NPC,NPC24H岡山南中央町パーキング,岡山県,岡山県岡山市北区南中央町2-15,17,200,,700,34.65598681,133.9260038,2026-06-30T09:04:43.349Z,https://parking.npc-npc.co.jp/p/33/1484
NPC,NPC24H岡山西島田町パーキング,岡山県,岡山県岡山市北区西島田町3,81,200,500,,34.65709789,133.9100736,2026-06-30T09:04:43.349Z,https://parking.npc-npc.co.jp/p/33/1484
NPC,NPC24H倉敷鶴形1丁目パーキング,岡山県,岡山県倉敷市鶴形1-3,11,300,,800,34.60148153,133.76965945,2026-06-30T09:04:43.349Z,https://parking.npc-npc.co.jp/p/33/1488
NPC,NPC24H鳥取駅前パーキング,鳥取県,鳥取県鳥取市永楽温泉町272番地,208,220,800,,35.49385564,134.2287392,2026-06-30T09:04:43.349Z,https://parking.npc-npc.co.jp/p/31/1443
NPC,NPC24H JR姫路駅東第1パーキング,兵庫県,兵庫県姫路市市之郷,37,200,600,,34.82543202,134.70130259,2026-06-30T09:04:43.349Z,https://parking.npc-npc.co.jp/p/28/1331
NPC,NPC24H JR姫路駅東第2パーキング,兵庫県,兵庫県姫路市市之郷,8,200,500,,34.82508122,134.70225478,2026-06-30T09:04:43.349Z,https://parking.npc-npc.co.jp/p/28/1331
NPC,NPC24Hひめじ別所パーキング,兵庫県,兵庫県姫路市別所町別所795-1,19,110,400,,34.80607001,134.7526589,2026-06-30T09:04:43.349Z,https://parking.npc-npc.co.jp/p/28/1331
NPC,NPC24H高松駅前パーキング,香川県,香川県高松市西の丸町9番,53,300,1600,500,34.34912469,134.0482153,2026-06-30T09:04:43.349Z,https://parking.npc-npc.co.jp/p/37/1592
NPC,加古川市営駐車場,兵庫県,兵庫県加古川市加古川町北在家2002,432,,600,,34.75606728,134.83992731,2026-06-30T09:04:43.349Z,https://parking.npc-npc.co.jp/p/28/1340
NPC,NPC24H福山駅前パーキング,広島県,広島県福山市延広町1-30,395,,1000,,34.4864458,133.3639981,2026-06-30T09:04:43.349Z,https://parking.npc-npc.co.jp/p/34/1528
NPC,NPC24H福山駅前第2パーキング,広島県,広島県福山市東桜町1-1,195,300,1300,,34.48753288,133.3623956,2026-06-30T09:04:43.349Z,https://parking.npc-npc.co.jp/p/34/1528
NPC,NPC24H土山パーキング,兵庫県,兵庫県明石市二見町西二見2042,32,200,600,400,34.71813069,134.8899371,2026-06-30T09:04:43.349Z,https://parking.npc-npc.co.jp/p/28/1333
NPC,NPC24H明石魚住パーキング,兵庫県,兵庫県明石市魚住町中尾600-4,40,300,700,,34.69514405,134.906909,2026-06-30T09:04:43.349Z,https://parking.npc-npc.co.jp/p/28/1333
NPC,NPC24H西明石駅前第2パーキング,兵庫県,兵庫県明石市西明石南町2丁目7-21,8,300,900,500,34.66548862,134.9602093,2026-06-30T09:04:43.349Z,https://parking.npc-npc.co.jp/p/28/1333
NPC,NPC24H西明石駅前第3パーキング,兵庫県,兵庫県明石市西明石南町2丁目12-3,7,400,,300,34.665056,134.960028,2026-06-30T09:04:43.349Z,https://parking.npc-npc.co.jp/p/28/1333
NPC,NPC24H明石小久保パーキング,兵庫県,兵庫県明石市小久保1丁目3-2,10,200,800,300,34.66831788,134.9621029,2026-06-30T09:04:43.349Z,https://parking.npc-npc.co.jp/p/28/1333
NPC,NPC24H明石市松の内パーキング,兵庫県,兵庫県明石市松の内1-10-4,19,400,900,400,34.66581954,134.9652009,2026-06-30T09:04:43.349Z,https://parking.npc-npc.co.jp/p/28/1333
NPC,NPC24H大明石町第2パーキング,兵庫県,兵庫県明石市大明石町1-9,20,400,1000,500,34.64884723,134.9893132,2026-06-30T09:04:43.349Z,https://parking.npc-npc.co.jp/p/28/1333
NPC,NPC24H大明石町パーキング,兵庫県,兵庫県明石市大明石町1-8,30,400,,600,34.64824834,134.9894077,2026-06-30T09:04:43.349Z,https://parking.npc-npc.co.jp/p/28/1333
NPC,NPC24H明石本町パーキング,兵庫県,兵庫県明石市本町2丁目4-15,17,600,1000,,34.6469996,134.9893998,2026-06-30T09:04:43.349Z,https://parking.npc-npc.co.jp/p/28/1333
NPC,NPC24H垂水旭が丘3丁目パーキング,兵庫県,兵庫県神戸市垂水区旭が丘3-10,9,300,600,300,34.63856235,135.05129869,2026-06-30T09:04:43.349Z,https://parking.npc-npc.co.jp/p/28/1327
NPC,NPC24H垂水上高丸2丁目パーキング,兵庫県,兵庫県神戸市垂水区上高丸2-1-1,8,300,600,400,34.64276642,135.05396301,2026-06-30T09:04:43.349Z,https://parking.npc-npc.co.jp/p/28/1327
NPC,NPC24H コーナン福知山店第1パーキング,京都,京都府福知山市駅前町352,74,100,,,35.29673305,135.120317,2026-06-30T09:04:43.349Z,https://parking.npc-npc.co.jp/p/26/1220
NPC,NPC24H コーナン福知山店第2パーキング,京都,京都府福知山市駅前町352,297,100,400,,35.29636745,135.1216547,2026-06-30T09:04:43.349Z,https://parking.npc-npc.co.jp/p/26/1220
NPC,NPC24H福原パーキング,兵庫県,兵庫県神戸市兵庫区福原町16,19,600,900,,34.67908095,135.1698312,2026-06-30T09:04:43.349Z,https://parking.npc-npc.co.jp/p/28/1324
NPC,NPC24H三田相生橋パーキング,兵庫県,兵庫県三田市三田町2-3,6,200,,,34.8844492,135.2280754,2026-06-30T09:04:43.349Z,https://parking.npc-npc.co.jp/p/28/1348
NPC,NPC24H神戸元町通3丁目パーキング,兵庫県,兵庫県神戸市中央区元町通3-9,2,1800,,500,34.68831718,135.18593306,2026-06-30T09:04:43.349Z,https://parking.npc-npc.co.jp/p/28/1329
NPC,NPC24H磯上通パーキング,兵庫県,兵庫県神戸市中央区磯上通4-2-5,22,1200,1500,800,34.6933088,135.2000029,2026-06-30T09:04:43.349Z,https://parking.npc-npc.co.jp/p/28/1329
NPC,NPC24H鶴甲3丁目パーキング,兵庫県,兵庫県神戸市灘区鶴甲3-12-20,6,600,1200,,34.73426576,135.2316397,2026-06-30T09:04:43.349Z,https://parking.npc-npc.co.jp/p/28/1323
NPC,NPC24H魚崎北町6丁目パーキング,兵庫県,兵庫県神戸市東灘区魚崎北町6-2-1,9,300,700,400,34.71836059,135.27414025,2026-06-30T09:04:43.349Z,https://parking.npc-npc.co.jp/p/28/1322
NPC,NPC24H深江駅北パーキング,兵庫県,兵庫県神戸市東灘区深江北町3-3-12,9,660,,400,34.72323048,135.2919572,2026-06-30T09:04:43.349Z,https://parking.npc-npc.co.jp/p/28/1322
NPC,NPC24H芦屋東山町パーキング,兵庫県,兵庫県芦屋市東山町4,19,600,700,300,34.74030272,135.31023845,2026-06-30T09:04:43.349Z,https://parking.npc-npc.co.jp/p/28/1336
NPC,NPC24HJR西宮駅前パーキング,兵庫県,兵庫県西宮市池田町9-6,6,600,,600,34.73865307,135.34747688,2026-06-30T09:04:43.349Z,https://parking.npc-npc.co.jp/p/28/1334
NPC,NPC24H コーナン武庫川店パーキング,兵庫県,兵庫県西宮市池開町1,84,100,1000,,34.7185064,135.376357,2026-06-30T09:04:43.349Z,https://parking.npc-npc.co.jp/p/28/1334
NPC,NPC24Hコーナン武庫川店第4パーキング,兵庫県,兵庫県西宮市池開町1番20号,14,200,1200,,34.71862681,135.3764699,2026-06-30T09:04:43.349Z,https://parking.npc-npc.co.jp/p/28/1334
NPC,NPC24H武庫川第2パーキング,兵庫県,兵庫県西宮市池開町3,55,100,1300,,34.71877222,135.3767519,2026-06-30T09:04:43.349Z,https://parking.npc-npc.co.jp/p/28/1334
NPC,NPC24Hトライアル武庫川店パーキング,兵庫県,兵庫県西宮市池開町2-28,72,200,1800,,34.71815089,135.3773947,2026-06-30T09:04:43.349Z,https://parking.npc-npc.co.jp/p/28/1334
NPC,NPC24H武庫川第3パーキング,兵庫県,兵庫県西宮市池開町3,11,300,1300,,34.71805885,135.3777203,2026-06-30T09:04:43.349Z,https://parking.npc-npc.co.jp/p/28/1334
NPC,NPC24H上田東町パーキング,兵庫県,兵庫県西宮市上田東町4-11,28,300,500,300,34.70692856,135.3753305,2026-06-30T09:04:43.349Z,https://parking.npc-npc.co.jp/p/28/1334
NPC,NPC24Hビッグボックス川西パーキング,兵庫県,兵庫県川西市中央町3-12,618,300,800,,34.8288995,135.4160752,2026-06-30T09:04:43.349Z,https://parking.npc-npc.co.jp/p/28/1346
NPC,NPC24H阪急稲野駅前パーキング,兵庫県,兵庫県伊丹市稲野町3-21,9,400,800,300,34.76417517,135.41522928,2026-06-30T09:04:43.349Z,https://parking.npc-npc.co.jp/p/28/1337
NPC,NPC24H塚口駅北第1パーキング,兵庫県,兵庫県尼崎市塚口町1-19-5,21,400,1000,300,34.75428552,135.4129259,2026-06-30T09:04:43.349Z,https://parking.npc-npc.co.jp/p/28/1332
NPC,NPC24H塚口駅北第2パーキング,兵庫県,兵庫県尼崎市塚口町1-16,15,400,1000,400,34.75506729,135.41349405,2026-06-30T09:04:43.349Z,https://parking.npc-npc.co.jp/p/28/1332
NPC,NPC24H出屋敷パーキング,兵庫県,兵庫県尼崎市宮内町2-37,20,400,1000,,34.71885318,135.4056599,2026-06-30T09:04:43.349Z,https://parking.npc-npc.co.jp/p/28/1332
NPC,NPC24H和歌山大学前駅パーキング,和歌山県,和歌山県和歌山市中573-5南西,41,200,500,,34.2750066,135.145751,2026-06-30T09:04:43.349Z,https://parking.npc-npc.co.jp/p/30/1412
NPC,NPC24H上坂部3丁目パーキング,兵庫県,兵庫県尼崎市上坂部3-35,7,330,700,500,34.74812551,135.42966859,2026-06-30T09:04:43.349Z,https://parking.npc-npc.co.jp/p/28/1332
NPC,NPC24H尼崎神崎町パーキング,兵庫県,兵庫県尼崎市神崎町39-3,7,400,800,400,34.74151718,135.4485376,2026-06-30T09:04:43.349Z,https://parking.npc-npc.co.jp/p/28/1332
NPC,NPC24Hりんくうタウンパーキング,大阪府,大阪府泉佐野市松原3-4,143,200,500,,34.40706319,135.2995513,2026-06-30T09:04:43.349Z,https://parking.npc-npc.co.jp/p/27/1290
NPC,NPC24Hりんくうタウン第3パーキング,大阪府,大阪府泉佐野市りんくう往来北1-9,351,200,700,,34.41020744,135.3027334,2026-06-30T09:04:43.349Z,https://parking.npc-npc.co.jp/p/27/1290
NPC,NPC24H築港4丁目パーキング,大阪府,大阪府大阪市港区築港4丁目2,9,600,800,,34.6537713,135.431578,2026-06-30T09:04:43.349Z,https://parking.npc-npc.co.jp/p/27/1251
NPC,NPC24H築港2丁目パーキング,大阪府,大阪府大阪市港区築港2-8-28、8-29,9,400,700,,34.65243558,135.43127906,2026-06-30T09:04:43.349Z,https://parking.npc-npc.co.jp/p/27/1251
NPC,NPC24Hコーナン御幣島店パーキング,大阪府,大阪府大阪市西淀川区御幣島2-11-35,103,,500,,34.71451258,135.4523634,2026-06-30T09:04:43.349Z,https://parking.npc-npc.co.jp/p/27/1255
NPC,NPC24H姫島5丁目パーキング,大阪府,大阪府大阪市西淀川区姫島5-10,11,300,800,400,34.7037344,135.45149244,2026-06-30T09:04:43.349Z,https://parking.npc-npc.co.jp/p/27/1255
NPC,NPC24H橋丁パーキング,和歌山県,和歌山県和歌山市橋丁18,11,200,,300,34.2341293,135.1692111,2026-06-30T09:04:43.349Z,https://parking.npc-npc.co.jp/p/30/1412
NPC,NPC24H和歌山十二番丁パーキング,和歌山県,和歌山県和歌山市十二番丁47,34,200,1000,,34.23186526,135.1717308,2026-06-30T09:04:43.349Z,https://parking.npc-npc.co.jp/p/30/1412
NPC,NPC24H和歌山北新5丁目パーキング,和歌山県,和歌山県和歌山市北新5-43,25,300,,600,34.23681122,135.17756624,2026-06-30T09:04:43.349Z,https://parking.npc-npc.co.jp/p/30/1412
NPC,NPC24H庄内西町パーキング,大阪府,大阪府豊中市庄内西町3-10-20,23,300,600,,34.747542,135.473798,2026-06-30T09:04:43.349Z,https://parking.npc-npc.co.jp/p/27/1280
NPC,NPC24H庄内パーキング,大阪府,大阪府豊中市庄内東町1-3-12　「シティー・ホール庄内」,113,,700,300,34.75175772,135.4760244,2026-06-30T09:04:43.349Z,https://parking.npc-npc.co.jp/p/27/1280
NPC,箕面市立箕面船場駐車場,大阪府,大阪府箕面市船場東3丁目10番1号,112,,300,500,34.82233777,135.4921262,2026-06-30T09:04:43.349Z,https://parking.npc-npc.co.jp/p/27/1297
NPC,NPC24H三先1丁目パーキング,大阪府,大阪府大阪市港区三先1-9,8,400,600,,34.66116328,135.45462565,2026-06-30T09:04:43.349Z,https://parking.npc-npc.co.jp/p/27/1251
NPC,NPC24Hコーナン弁天町店パーキング,大阪府,大阪府大阪市港区弁天1-2-24,84,,1300,,34.66910531,135.4597161,2026-06-30T09:04:43.349Z,https://parking.npc-npc.co.jp/p/27/1251
NPC,NPC24Hライフ弁天町店パーキング,大阪府,大阪府大阪市港区磯路1-9-1,73,400,1000,,34.66729781,135.460735,2026-06-30T09:04:43.349Z,https://parking.npc-npc.co.jp/p/27/1251
NPC,NPC24Hパラッツォ大阪三国店パーキング,大阪府,大阪府大阪市淀川区十八条2丁目17-14,424,200,500,,34.74891442,135.48910907,2026-06-30T09:04:43.349Z,https://parking.npc-npc.co.jp/p/27/1265
NPC,NPC24H市岡1丁目第3パーキング,大阪府,大阪府大阪市港区市岡1丁目21-2,22,440,,400,34.66204707,135.4626662,2026-06-30T09:04:43.349Z,https://parking.npc-npc.co.jp/p/27/1251
NPC,NPC24H市岡1丁目パーキング,大阪府,大阪府大阪市港区市岡1丁目2-19付近,21,440,800,400,34.66322794,135.4636679,2026-06-30T09:04:43.349Z,https://parking.npc-npc.co.jp/p/27/1251
NPC,NPC24H市岡1丁目第4パーキング,大阪府,大阪府大阪市港区市岡3丁目1,15,440,800,,34.66364211,135.464014,2026-06-30T09:04:43.349Z,https://parking.npc-npc.co.jp/p/27/1251
NPC,NPC24H岸和田蛸地蔵パーキング,大阪府,大阪府岸和田市南町5-16,16,110,300,,34.45603228,135.3668309,2026-06-30T09:04:43.349Z,https://parking.npc-npc.co.jp/p/27/1279
NPC,NPC24Hライフ緑地公園店パーキング,大阪府,大阪府吹田市江坂町4-15,106,300,600,,34.76864335,135.49661588,2026-06-30T09:04:43.349Z,https://parking.npc-npc.co.jp/p/27/1282
NPC,NPC24H熊取駅前パーキング,大阪府,大阪府泉南郡熊取町大久保中2-14-4,36,110,500,300,34.40488203,135.3425877,2026-06-30T09:04:43.349Z,https://parking.npc-npc.co.jp/p/27/1314
NPC,NPC24H京町堀3丁目パーキング,大阪府,大阪府大阪市西区京町堀3-4-10,23,600,,300,34.68397585,135.48774341,2026-06-30T09:04:43.349Z,https://parking.npc-npc.co.jp/p/27/1250
NPC,NPC24H新大阪東口パーキング,大阪府,大阪府大阪市東淀川区東中島1-20-16,554,800,1900,,34.73397743,135.5034655,2026-06-30T09:04:43.349Z,https://parking.npc-npc.co.jp/p/27/1256
NPC,NPC24H ONE DOJIMAパーキング,大阪府,大阪府大阪市北区堂島2-4-5,14,900,,,34.69626436,135.49352901,2026-06-30T09:04:43.349Z,https://parking.npc-npc.co.jp/p/27/1269
NPC,NPC24H南吹田駅前パーキング,大阪府,大阪府吹田市南吹田1-20,36,220,600,300,34.74978638,135.5104162,2026-06-30T09:04:43.349Z,https://parking.npc-npc.co.jp/p/27/1282
NPC,NPC24H立葉パーキング,大阪府,大阪府大阪市浪速区立葉1-2-23,8,400,1300,800,34.66530883,135.4871574,2026-06-30T09:04:43.349Z,https://parking.npc-npc.co.jp/p/27/1254
NPC,NPC24H豊崎2丁目パーキング,大阪府,大阪府大阪市北区豊崎2丁目2-10,12,880,1800,500,34.71012106,135.5020209,2026-06-30T09:04:43.349Z,https://parking.npc-npc.co.jp/p/27/1269
NPC,NPC24H中崎町第1パーキング,大阪府,大阪府大阪市北区中崎西3丁目3-18,39,880,1800,,34.7079404,135.501754,2026-06-30T09:04:43.349Z,https://parking.npc-npc.co.jp/p/27/1269
NPC,NPC24H中崎町第2パーキング,大阪府,大阪府大阪市北区中崎西3丁目3-14,26,880,1800,,34.70761186,135.5017071,2026-06-30T09:04:43.349Z,https://parking.npc-npc.co.jp/p/27/1269
NPC,NPC24H阿波座1丁目パーキング,大阪府,大阪府大阪市西区阿波座1-15-20,2,1200,,,34.68065735,135.4936779,2026-06-30T09:04:43.349Z,https://parking.npc-npc.co.jp/p/27/1250
NPC,NPC24H北堀江2丁目パーキング,大阪府,大阪府大阪市西区北堀江2丁目5-12,20,1200,1500,500,34.67288087,135.49140739,2026-06-30T09:04:43.349Z,https://parking.npc-npc.co.jp/p/27/1250
NPC,NPC24H桜川パーキング,大阪府,大阪府大阪市浪速区幸町2-2-36,58,600,,700,34.6692015,135.4905869,2026-06-30T09:04:43.349Z,https://parking.npc-npc.co.jp/p/27/1254
NPC,NPC24H桜川駅前パーキング,大阪府,大阪府大阪市浪速区桜川2-2-10,123,400,1200,,34.6675932,135.49035328,2026-06-30T09:04:43.349Z,https://parking.npc-npc.co.jp/p/27/1254
NPC,NPC24H桜川2丁目パーキング,大阪府,大阪府大阪市浪速区桜川2-1-10,6,400,,600,34.66763633,135.49096688,2026-06-30T09:04:43.349Z,https://parking.npc-npc.co.jp/p/27/1254
NPC,NPC24H堂山町パーキング,大阪府,大阪府大阪市北区堂山町9-19,41,900,,,34.70358962,135.5039928,2026-06-30T09:04:43.349Z,https://parking.npc-npc.co.jp/p/27/1269
NPC,NPC24H北堀江第2パーキング,大阪府,大阪府大阪市西区北堀江1-10-6,24,1200,,,34.6737232,135.4953822,2026-06-30T09:04:43.349Z,https://parking.npc-npc.co.jp/p/27/1250
NPC,NPC24H北堀江第1パーキング,大阪府,大阪府大阪市西区北堀江1-10-6,32,1200,,,34.67374526,135.4958248,2026-06-30T09:04:43.349Z,https://parking.npc-npc.co.jp/p/27/1250
NPC,NPC24H住之江公園駅前第3パーキング,大阪府,大阪府大阪市住之江区新北島1-4-21東側,17,400,700,400,34.60625404,135.4713525,2026-06-30T09:04:43.349Z,https://parking.npc-npc.co.jp/p/27/1267
NPC,NPC24H道修町3丁目パーキング,大阪府,大阪府大阪市中央区道修町3-7,6,2400,,300,34.68883594,135.50161862,2026-06-30T09:04:43.349Z,https://parking.npc-npc.co.jp/p/27/1270
NPC,NPC24H西成松3丁目第2パーキング,大阪府,大阪府大阪市西成区松3-12-1,7,300,600,,34.64204735,135.4865974,2026-06-30T09:04:43.349Z,https://parking.npc-npc.co.jp/p/27/1264
NPC,NPC24H西成松3丁目パーキング,大阪府,大阪府大阪市西成区松3-12-11,8,300,600,,34.64113653,135.4866518,2026-06-30T09:04:43.349Z,https://parking.npc-npc.co.jp/p/27/1264
NPC,NPC24H住之江公園駅前第2パーキング,大阪府,大阪府大阪市住之江区南加賀屋2-51,38,300,800,300,34.60741483,135.4738419,2026-06-30T09:04:43.349Z,https://parking.npc-npc.co.jp/p/27/1267
NPC,NPC24H大阪法宴会館パーキング,大阪府,大阪府大阪市北区本庄東1-1-36,41,660,1200,600,34.7116847,135.51048845,2026-06-30T09:04:43.349Z,https://parking.npc-npc.co.jp/p/27/1269
NPC,NPC24H西心斎橋第2パーキング,大阪府,大阪府大阪市中央区西心斎橋1-11-3,306,200,,800,34.67437689,135.4992763,2026-06-30T09:04:43.349Z,https://parking.npc-npc.co.jp/p/27/1270
NPC,NPC24H西心斎橋第1パーキング,大阪府,大阪府大阪市中央区西心斎橋1丁目9-7,307,200,,800,34.67283084,135.4989248,2026-06-30T09:04:43.349Z,https://parking.npc-npc.co.jp/p/27/1270
NPC,NPC24Hライフ加賀屋店パーキング,大阪府,大阪府大阪市住之江区中加賀屋4-6-28,39,200,600,,34.61468417,135.47988427,2026-06-30T09:04:43.349Z,https://parking.npc-npc.co.jp/p/27/1267
NPC,NPC24H西天満パーキング,大阪府,大阪府大阪市北区西天満3-30,10,900,2000,300,34.69517716,135.5087371,2026-06-30T09:04:43.349Z,https://parking.npc-npc.co.jp/p/27/1269
NPC,NPC24H大国町パーキング,大阪府,大阪府大阪市浪速区敷津西2-1-14,6,600,1300,900,34.656166,135.4973,2026-06-30T09:04:43.349Z,https://parking.npc-npc.co.jp/p/27/1254
NPC,NPC24H堺三宝町パーキング,大阪府,大阪府堺市堺区三宝町4丁271,14,400,800,500,34.59411612,135.47504785,2026-06-30T09:04:43.349Z,https://parking.npc-npc.co.jp/p/27/1272
NPC,NPC24H天満4丁目パーキング,大阪府,大阪府大阪市北区天満4-12-17,21,400,1800,400,34.695088,135.513788,2026-06-30T09:04:43.349Z,https://parking.npc-npc.co.jp/p/27/1269
NPC,NPC24H島之内第6パーキング,大阪府,大阪府大阪市中央区島之内1-16-15,6,800,1700,,34.67439628,135.5073505,2026-06-30T09:04:43.349Z,https://parking.npc-npc.co.jp/p/27/1270
NPC,NPC24H島之内第2パーキング,大阪府,大阪府大阪市中央区島之内1-15-20,11,800,1500,,34.67390838,135.5073442,2026-06-30T09:04:43.349Z,https://parking.npc-npc.co.jp/p/27/1270
NPC,NPC24H日本橋西パーキング,大阪府,大阪府大阪市浪速区日本橋西1丁目2-2,14,990,1200,,34.66083145,135.5038944,2026-06-30T09:04:43.349Z,https://parking.npc-npc.co.jp/p/27/1254
NPC,NPC24H材木町パーキング,大阪府,大阪府大阪市中央区材木町2-20,8,600,,600,34.679788,135.511426,2026-06-30T09:04:43.349Z,https://parking.npc-npc.co.jp/p/27/1270
NPC,NPC24H宿院パーキング,大阪府,大阪府堺市堺区大町東1丁1-5,20,200,1000,400,34.57651598,135.4723074,2026-06-30T09:04:43.349Z,https://parking.npc-npc.co.jp/p/27/1272
NPC,NPC24H松屋町住吉パーキング,大阪府,大阪府大阪市中央区松屋町住吉5-21,5,600,,600,34.678994,135.511394,2026-06-30T09:04:43.349Z,https://parking.npc-npc.co.jp/p/27/1270
NPC,NPC24H島之内第7パーキング,大阪府,大阪府大阪市中央区島之内1-3-14,12,600,,,34.672005,135.509678,2026-06-30T09:04:43.349Z,https://parking.npc-npc.co.jp/p/27/1270
NPC,NPC24H農人橋パーキング,大阪府,大阪府大阪市中央区農人橋2-2-2,12,1200,1800,800,34.68050044,135.5130034,2026-06-30T09:04:43.349Z,https://parking.npc-npc.co.jp/p/27/1270
NPC,NPC24H島之内第5パーキング,大阪府,大阪府大阪市中央区島之内1-2-7,10,440,1500,,34.67239279,135.5104798,2026-06-30T09:04:43.349Z,https://parking.npc-npc.co.jp/p/27/1270
NPC,NPC24H太子一丁目第1パーキング,大阪府,大阪府大阪市西成区太子1-3-13,3,440,1500,,34.648253,135.503508,2026-06-30T09:04:43.349Z,https://parking.npc-npc.co.jp/p/27/1264
NPC,NPC24H通天閣パーキング,大阪府,大阪府大阪市浪速区恵美須東2丁目2-5,33,600,,400,34.6521915,135.5069427,2026-06-30T09:04:43.349Z,https://parking.npc-npc.co.jp/p/27/1254
NPC,NPC24H堺翁橋パーキング,大阪府,大阪府堺市堺区翁橋町1-4-18付近,15,400,900,,34.57390713,135.4784775,2026-06-30T09:04:43.349Z,https://parking.npc-npc.co.jp/p/27/1272
NPC,NPC24H堺市役所南パーキング,大阪府,大阪府堺市堺区新町5-7付近,11,600,1300,,34.57295572,135.4822999,2026-06-30T09:04:43.349Z,https://parking.npc-npc.co.jp/p/27/1272
NPC,NPC24H堺市役所南第3パーキング,大阪府,大阪府堺市堺区一条通19-21,29,440,1000,400,34.57226569,135.4820829,2026-06-30T09:04:43.349Z,https://parking.npc-npc.co.jp/p/27/1272
NPC,NPC24H空清町パーキング,大阪府,大阪府大阪市天王寺区空清町6-13,5,400,800,400,34.6723078,135.52344119,2026-06-30T09:04:43.349Z,https://parking.npc-npc.co.jp/p/27/1253
NPC,NPC24H堺西永山園パーキング,大阪府,大阪府堺市堺区西永山園1,13,100,500,300,34.56913261,135.48411667,2026-06-30T09:04:43.349Z,https://parking.npc-npc.co.jp/p/27/1272
NPC,NPC24H阿倍野筋2丁目パーキング,大阪府,大阪府大阪市阿倍野区阿倍野筋2-2-23,10,660,,500,34.64278571,135.5135176,2026-06-30T09:04:43.349Z,https://parking.npc-npc.co.jp/p/27/1261
NPC,NPC24H京橋駅前パーキング,大阪府,大阪府大阪市都島区東野田町5-3,171,600,1200,,34.69911883,135.5347747,2026-06-30T09:04:43.349Z,https://parking.npc-npc.co.jp/p/27/1247
NPC,NPC24Hサンガスタジアム前パーキング,京都,京都府亀岡市亀岡駅北1丁目5-19、5-20、5- 21,28,,300,,35.01797882,135.5815323,2026-06-30T09:04:43.349Z,https://parking.npc-npc.co.jp/p/26/1225
NPC,NPC24H南三国ヶ丘町パーキング,大阪府,大阪府堺市堺区南三国ヶ丘町3-4-17付近,22,200,600,400,34.57242142,135.4900556,2026-06-30T09:04:43.349Z,https://parking.npc-npc.co.jp/p/27/1272
NPC,NPC24H国分町パーキング,大阪府,大阪府大阪市天王寺区国分町9-12,7,800,1700,500,34.651745,135.52316,2026-06-30T09:04:43.349Z,https://parking.npc-npc.co.jp/p/27/1253
NPC,NPC24H亀岡駅前パーキング,京都,京都府亀岡市古世町西内坪20,99,110,500,,35.01503566,135.5845468,2026-06-30T09:04:43.349Z,https://parking.npc-npc.co.jp/p/26/1225
NPC,NPC24H長居西3丁目パーキング,大阪府,大阪府大阪市住吉区長居西3丁目1-14の西側,21,200,800,400,34.60875528,135.5072914,2026-06-30T09:04:43.349Z,https://parking.npc-npc.co.jp/p/27/1262
NPC,NPC24H鴫野西4丁目パーキング,大阪府,大阪府大阪市城東区鴫野西4-8-16,4,400,1300,600,34.6906525,135.54080205,2026-06-30T09:04:43.349Z,https://parking.npc-npc.co.jp/p/27/1260
NPC,NPC24H桃谷パーキング,大阪府,大阪府大阪市生野区桃谷2-24,3,600,,700,34.659432,135.530718,2026-06-30T09:04:43.349Z,https://parking.npc-npc.co.jp/p/27/1258
NPC,NPC24H勝山北2丁目パーキング,大阪府,大阪府大阪市生野区勝山北2-10-14,8,300,1100,500,34.656134,135.530741,2026-06-30T09:04:43.349Z,https://parking.npc-npc.co.jp/p/27/1258
NPC,NPC24H三国ヶ丘第2パーキング,大阪府,大阪府堺市堺区向陵中町4-1,20,300,800,,34.56613563,135.4956211,2026-06-30T09:04:43.349Z,https://parking.npc-npc.co.jp/p/27/1272
NPC,NPC24H勝山北2丁目第2パーキング,大阪府,大阪府大阪市生野区勝山北2-3、2-2,8,400,600,300,34.65724409,135.53216355,2026-06-30T09:04:43.349Z,https://parking.npc-npc.co.jp/p/27/1258
NPC,NPC24H土居パーキング,大阪府,大阪府守口市土居町8-7-3,5,300,1100,300,34.731536,135.560502,2026-06-30T09:04:43.349Z,https://parking.npc-npc.co.jp/p/27/1286
NPC,NPC24H今福東2丁目パーキング,大阪府,大阪府大阪市城東区今福東2-7,8,400,500,300,34.70200028,135.55765789,2026-06-30T09:04:43.349Z,https://parking.npc-npc.co.jp/p/27/1260
NPC,NPC24H鳥飼野々パーキング,大阪府,大阪府摂津市鳥飼野々一丁目31-12,25,400,800,400,34.77215227,135.5762135,2026-06-30T09:04:43.349Z,https://parking.npc-npc.co.jp/p/27/1301
NPC,NPC24H深江橋パーキング,大阪府,大阪府大阪市城東区永田3丁目7-7,72,200,1000,300,34.68316306,135.5574469,2026-06-30T09:04:43.349Z,https://parking.npc-npc.co.jp/p/27/1260
NPC,NPC24H正風病院パーキング,大阪府,大阪府堺市北区新金岡町5-1-3,42,200,700,400,34.56606053,135.51670866,2026-06-30T09:04:43.349Z,https://parking.npc-npc.co.jp/p/27/1277
NPC,NPC24H小路駅前パーキング,大阪府,大阪府大阪市生野区小路東2-13-15,10,400,600,300,34.66109643,135.55691095,2026-06-30T09:04:43.349Z,https://parking.npc-npc.co.jp/p/27/1258
NPC,NPC24H河内天美駅北第2パーキング,大阪府,大阪府松原市天美東6-18,10,200,500,,34.59031906,135.53438664,2026-06-30T09:04:43.349Z,https://parking.npc-npc.co.jp/p/27/1294
NPC,NPC24H今津南パーキング,大阪府,大阪府大阪市鶴見区今津南1丁目9-15,30,300,600,400,34.68881686,135.5694248,2026-06-30T09:04:43.349Z,https://parking.npc-npc.co.jp/p/27/1266
NPC,NPC24H河内天美駅北パーキング,大阪府,大阪府松原市天美東6-10-12,6,220,700,400,34.58898505,135.53561958,2026-06-30T09:04:43.349Z,https://parking.npc-npc.co.jp/p/27/1294
NPC,NPC24H古川橋駅前パーキング,大阪府,大阪府門真市末広町5-21,6,300,800,400,34.74008976,135.5929599,2026-06-30T09:04:43.349Z,https://parking.npc-npc.co.jp/p/27/1300
NPC,NPC24H高見の里駅前パーキング,大阪府,大阪府松原市高見の里4-789-3,12,200,500,,34.57497172,135.54959744,2026-06-30T09:04:43.349Z,https://parking.npc-npc.co.jp/p/27/1294
NPC,NPC24H小阪パーキング,大阪府,大阪府東大阪市上小阪3-1-6,24,100,600,300,34.65577313,135.5843281,2026-06-30T09:04:43.349Z,https://parking.npc-npc.co.jp/p/27/1304
NPC,NPC24H東大阪市文化創造館駐車場（自動車）,大阪府,大阪府東大阪市御厨南2-3-4,63,200,,300,34.66561878,135.5905338,2026-06-30T09:04:43.349Z,https://parking.npc-npc.co.jp/p/27/1304
NPC,NPC24H鴻池町2丁目パーキング,大阪府,大阪府東大阪市鴻池町2丁目1,21,200,700,,34.69717902,135.6033285,2026-06-30T09:04:43.349Z,https://parking.npc-npc.co.jp/p/27/1304
NPC,NPC24H久宝寺駅前第2パーキング,大阪府,大阪府八尾市龍華町1-4-1,21,,,,34.62147909,135.585974,2026-06-30T09:04:43.349Z,https://parking.npc-npc.co.jp/p/27/1289
NPC,NPC24H久宝寺駅前第1パーキング,大阪府,大阪府八尾市龍華町1-4-1,116,,1200,,34.62144112,135.5861314,2026-06-30T09:04:43.349Z,https://parking.npc-npc.co.jp/p/27/1289
NPC,NPC24H東香里園町パーキング,大阪府,大阪府寝屋川市東香里園町30-16付近,13,220,,300,34.78433748,135.6360992,2026-06-30T09:04:43.349Z,https://parking.npc-npc.co.jp/p/27/1292
NPC,NPC24H恵我之荘パーキング,大阪府,大阪府羽曳野市恵我之荘1-2-2,9,300,600,300,34.57389893,135.57374047,2026-06-30T09:04:43.349Z,https://parking.npc-npc.co.jp/p/27/1299
NPC,NPC24H大東市役所前パーキング,大阪府,大阪府大東市曙町3,12,440,800,300,34.71087847,135.6236538,2026-06-30T09:04:43.349Z,https://parking.npc-npc.co.jp/p/27/1295
NPC,NPC24H市立ひらかた病院駐車場,大阪府,大阪府枚方市禁野本町2-14-1,175,300,1200,,34.82068247,135.65885648,2026-06-30T09:04:43.349Z,https://parking.npc-npc.co.jp/p/27/1287
NPC,NPC24H枚方市保健所駐車場,大阪府,大阪府枚方市禁野本町2丁目13-13,67,300,1200,,34.82068247,135.65885648,2026-06-30T09:04:43.349Z,https://parking.npc-npc.co.jp/p/27/1287
NPC,NPC24H忍ヶ丘駅南パーキング,大阪府,大阪府四條畷市岡山東1-25,10,400,600,,34.74454945,135.6441597,2026-06-30T09:04:43.349Z,https://parking.npc-npc.co.jp/p/27/1306
NPC,NPC24H北条3丁目パーキング,大阪府,大阪府大東市北条3-4-27,20,,500,300,34.73095492,135.64281797,2026-06-30T09:04:43.349Z,https://parking.npc-npc.co.jp/p/27/1295
NPC,NPC24Hmorinekiパーキング,大阪府,大阪府大東市北条3丁目8-33,30,,600,300,34.7300176,135.643673,2026-06-30T09:04:43.349Z,https://parking.npc-npc.co.jp/p/27/1295
NPC,NPC24H東花園駅前パーキング,大阪府,大阪府東大阪市吉田6-2,10,600,700,500,34.66331561,135.62485399,2026-06-30T09:04:43.349Z,https://parking.npc-npc.co.jp/p/27/1304
NPC,NPC24H下六万寺町パーキング,大阪府,大阪府東大阪市下六万寺町2丁目2番2号,19,200,600,,34.65284019,135.6390362,2026-06-30T09:04:43.349Z,https://parking.npc-npc.co.jp/p/27/1304
NPC,NPC24H東映太秦映画村第1駐車場,京都,京都府京都市右京区太秦東蜂岡町10,523,700,,1000,35.01765371,135.7089748,2026-06-30T09:04:43.349Z,https://parking.npc-npc.co.jp/p/26/1216
NPC,NPC24H東映太秦映画村第2駐車場,京都,京都府京都市右京区太秦東蜂岡町10,81,700,,1000,35.01721877,135.709007,2026-06-30T09:04:43.349Z,https://parking.npc-npc.co.jp/p/26/1216
NPC,NPC24H三日市町駅前パーキング,大阪府,大阪府河内長野市三日市町188,85,200,700,300,34.43644432,135.568675,2026-06-30T09:04:43.349Z,https://parking.npc-npc.co.jp/p/27/1293
NPC,NPC24H JR花園駅前パーキング,京都,京都府京都市右京区太秦安井小山町1番3,7,400,,400,35.018602,135.719649,2026-06-30T09:04:43.349Z,https://parking.npc-npc.co.jp/p/26/1216
NPC,NPC24H長尾駅前パーキング,大阪府,大阪府枚方市長尾元町5-35,24,330,500,300,34.82686888,135.7120215,2026-06-30T09:04:43.349Z,https://parking.npc-npc.co.jp/p/27/1287
NPC,NPC24H紫野泉堂町パーキング,京都,京都府京都市北区紫野泉堂町87,8,440,800,,35.04719678,135.7410138,2026-06-30T09:04:43.349Z,https://parking.npc-npc.co.jp/p/26/1209
NPC,NPC24H二条パーキング,京都,京都府京都市中京区西ノ京池ノ内町23,13,600,1200,600,35.009775,135.7451752,2026-06-30T09:04:43.349Z,https://parking.npc-npc.co.jp/p/26/1212
NPC,NPC24Hコーナン伏見大手筋店パーキング,京都,京都府京都市伏見区横大路三栖大黒町8-1,86,,500,,34.93277797,135.7544979,2026-06-30T09:04:43.349Z,https://parking.npc-npc.co.jp/p/26/1217
NPC,NPC24H室町御池パーキング,京都,京都府京都市中京区室町通押小路下る御池之町311,6,900,,500,35.011516,135.757976,2026-06-30T09:04:43.349Z,https://parking.npc-npc.co.jp/p/26/1212
NPC,NPC24H北生駒駅前パーキング,奈良県,奈良県生駒市上町3522,37,110,700,,34.72495146,135.7231601,2026-06-30T09:04:43.349Z,https://parking.npc-npc.co.jp/p/29/1380
NPC,NPC24H京都ヨドバシパーキング,京都,京都府京都市下京区東塩小路町590-2,502,,1500,1400,34.98914695,135.75849602,2026-06-30T09:04:43.349Z,https://parking.npc-npc.co.jp/p/26/1211
NPC,NPC24H四条烏丸FTスクエアパーキング,京都,京都府京都市下京区四条通烏丸東入長刀鉾町20,20,600,,,35.00293271,135.7598455,2026-06-30T09:04:43.349Z,https://parking.npc-npc.co.jp/p/26/1214
NPC,NPC24H三条東洞院パーキング,京都,京都府京都市中京区東洞院通三条下る三文字町214-1，2，3,6,1200,1800,,35.007861,135.761177,2026-06-30T09:04:43.349Z,https://parking.npc-npc.co.jp/p/26/1212
NPC,NPC24H東洞院綾小路パーキング,京都,京都府京都市下京区東洞院通綾小路下る扇酒屋町280、283番地,7,1200,,,35.002241,135.761152,2026-06-30T09:04:43.349Z,https://parking.npc-npc.co.jp/p/26/1214
NPC,NPC24H伏見桃山パーキング,京都,京都府京都市伏見区竹中町609,109,330,600,,34.93711959,135.76240437,2026-06-30T09:04:43.349Z,https://parking.npc-npc.co.jp/p/26/1217
NPC,NPC24H二条角倉町パーキング,京都,京都府京都市中京区新椹木町通二条上る角倉町212番-3、212-1,10,600,1800,600,35.014236,135.768425,2026-06-30T09:04:43.349Z,https://parking.npc-npc.co.jp/p/26/1212
NPC,NPC24H京阪七条駅南パーキング,京都,京都府京都市東山区一橋宮ノ内町2-20,4,440,1000,400,34.98849849,135.7686214,2026-06-30T09:04:43.349Z,https://parking.npc-npc.co.jp/p/26/1213
NPC,NPC24H西木屋町パーキング,京都,京都府京都市下京区西木屋町通松原上る三丁目市之町243番,3,660,,,35.00208568,135.7698476,2026-06-30T09:04:43.349Z,https://parking.npc-npc.co.jp/p/26/1214
NPC,NPC24Hヒルトン京都パーキング,京都,京都府京都市中京区下丸屋町413,6,700,8400,,35.01028962,135.77005538,2026-06-30T09:04:43.349Z,https://parking.npc-npc.co.jp/p/26/1212
NPC,NPC24H木屋町第4パーキング,京都,京都府京都市中京区河原町通三条下る3丁目東入南車屋町283-1、289-5,3,990,,,35.00648394,135.7701144,2026-06-30T09:04:43.349Z,https://parking.npc-npc.co.jp/p/26/1212
NPC,NPC24H木屋町第3パーキング,京都,京都府京都市中京区河原町通三条下る2丁目山崎町236番地14、236番地、15,7,1200,,,35.007601,135.770257,2026-06-30T09:04:43.349Z,https://parking.npc-npc.co.jp/p/26/1212
NPC,NPC24H木屋町第5パーキング,京都,京都府京都市中京区河原町通三条下る2丁目東入北車屋町273-1,18,1320,,,35.0069135,135.7702573,2026-06-30T09:04:43.349Z,https://parking.npc-npc.co.jp/p/26/1212
NPC,NPC24H三十三間堂前パーキング,京都,京都府京都市東山区西之門町554,33,440,800,400,34.98915583,135.7709284,2026-06-30T09:04:43.349Z,https://parking.npc-npc.co.jp/p/26/1213
NPC,NPC24H京都泉涌寺パーキング,京都,京都府京都市東山区泉湧寺五葉ノ辻町28,16,300,800,300,34.98227843,135.7711092,2026-06-30T09:04:43.349Z,https://parking.npc-npc.co.jp/p/26/1213
NPC,NPC24H伏見稲荷大社前パーキング,京都,京都府京都市伏見区深草稲荷御前町71番,12,800,,400,34.96720327,135.7710167,2026-06-30T09:04:43.349Z,https://parking.npc-npc.co.jp/p/26/1217
NPC,NPC24H祇園団栗第2パーキング,京都,京都府京都市東山区大和大路通4条下る3丁目博多町70番2,5,1200,,1300,35.0017449,135.7725962,2026-06-30T09:04:43.349Z,https://parking.npc-npc.co.jp/p/26/1213
NPC,NPC24H川端冷泉第2パーキング,京都,京都府京都市左京区聖護院東寺領町6-1,5,440,1000,400,35.0153277,135.773565,2026-06-30T09:04:43.349Z,https://parking.npc-npc.co.jp/p/26/1211
NPC,NPC24H東山五条パーキング,京都,京都府京都市東山区五条坂若宮八幡南前下る慈法院庵町581-3,2,1200,,,34.993577,135.7754,2026-06-30T09:04:43.349Z,https://parking.npc-npc.co.jp/p/26/1213
NPC,NPC24H川端冷泉パーキング,京都,京都府京都市左京区聖護院蓮華蔵町8-8，8-30，19-1，25，25-1，25-9，26-4,14,440,1000,500,35.015312,135.776196,2026-06-30T09:04:43.349Z,https://parking.npc-npc.co.jp/p/26/1211
NPC,NPC24H祇園新橋パーキング,京都,京都府京都市東山区新橋通大和大路東入林下町418,2,900,,,35.005693,135.77639,2026-06-30T09:04:43.349Z,https://parking.npc-npc.co.jp/p/26/1213
NPC,NPC24H知恩院前パーキング,京都,京都府京都市東山区石橋町298-2,5,900,,800,35.00687566,135.77772576,2026-06-30T09:04:43.349Z,https://parking.npc-npc.co.jp/p/26/1213
NPC,NPC24H京田辺駅前パーキング,京都,京都府京田辺市田辺中央5-1-5,40,400,700,300,34.82159089,135.7700787,2026-06-30T09:04:43.349Z,https://parking.npc-npc.co.jp/p/26/1230
NPC,NPC24H新田辺駅前パーキング,京都,京都府京田辺市田辺中央1-7付近,16,400,1000,400,34.820161,135.771229,2026-06-30T09:04:43.349Z,https://parking.npc-npc.co.jp/p/26/1230
NPC,NPC24H近鉄小倉パーキング,京都,京都府宇治市小倉町西浦60-1,48,220,600,,34.8944442,135.7811255,2026-06-30T09:04:43.349Z,https://parking.npc-npc.co.jp/p/26/1223
NPC,NPC24H法隆寺1丁目パーキング,奈良県,奈良県生駒郡斑鳩町法隆寺1‐6‐10,42,,,,34.61126523,135.73427861,2026-06-30T09:04:43.349Z,https://parking.npc-npc.co.jp/p/29/1387
NPC,NPC24H山科勧修寺パーキング,京都,京都府京都市山科区勧修寺西北出町36,12,220,500,300,34.96465084,135.8082272,2026-06-30T09:04:43.349Z,https://parking.npc-npc.co.jp/p/26/1218
NPC,NPC24H京都薬科大学前パーキング,京都,京都府京都市山科区御陵大津畑町55-6,8,600,900,300,34.98958172,135.81149838,2026-06-30T09:04:43.349Z,https://parking.npc-npc.co.jp/p/26/1218
NPC,NPC24H奈良県コンベンションセンター平面駐車場,奈良県,奈良県奈良市三条大路一丁目1,69,200,1000,,34.68285087,135.8044078,2026-06-30T09:04:43.349Z,https://parking.npc-npc.co.jp/p/29/1372
NPC,NPC24H奈良県コンベンションセンター地下駐車場,奈良県,奈良県奈良市三条大路一丁目1,326,200,1000,,34.68278911,135.8045794,2026-06-30T09:04:43.349Z,https://parking.npc-npc.co.jp/p/29/1372
NPC,NPC24H奈良三条添川町パーキング,奈良県,奈良県奈良市三条添川町224-1,7,300,500,300,34.679569,135.8129682,2026-06-30T09:04:43.349Z,https://parking.npc-npc.co.jp/p/29/1372
NPC,なら100年会館駐車場,奈良県,奈良県奈良市三条宮前町7-1,95,300,900,700,34.68085256,135.8161773,2026-06-30T09:04:43.349Z,https://parking.npc-npc.co.jp/p/29/1372
NPC,NPC24Hびわ湖浜大津駅前パーキング,滋賀県,滋賀県大津市浜大津2丁目1-6,16,300,900,400,35.01065045,135.8621933,2026-06-30T09:04:43.349Z,https://parking.npc-npc.co.jp/p/25/1188
NPC,奈良市営JR奈良駅駐車場,奈良県,奈良県奈良市三条本町8-1,244,300,900,700,34.68161572,135.8179958,2026-06-30T09:04:43.349Z,https://parking.npc-npc.co.jp/p/29/1372
NPC,NPC24H大津駅南口パーキング,滋賀県,滋賀県大津市逢坂1丁目9-11,14,400,1100,,35.00226244,135.8633949,2026-06-30T09:04:43.349Z,https://parking.npc-npc.co.jp/p/25/1188
NPC,NPC24H奈良三条町パーキング,奈良県,奈良県奈良市三条町575-4,8,300,500,400,34.68012911,135.82263,2026-06-30T09:04:43.349Z,https://parking.npc-npc.co.jp/p/29/1372
NPC,NPC24H滋賀県庁前パーキング,滋賀県,滋賀県大津市京町3-4,12,660,1500,400,35.00534726,135.8679761,2026-06-30T09:04:43.349Z,https://parking.npc-npc.co.jp/p/25/1188
NPC,NPC24H奈良本子守町パーキング,奈良県,奈良県奈良市本子守町7-1,13,400,,500,34.6809547,135.8262037,2026-06-30T09:04:43.349Z,https://parking.npc-npc.co.jp/p/29/1372
NPC,NPC24H堅田駅前パーキング,滋賀県,滋賀県大津市今堅田2丁目15-14、15-24,33,220,500,,35.12213043,135.9168594,2026-06-30T09:04:43.349Z,https://parking.npc-npc.co.jp/p/25/1188
NPC,NPC24H瀬田駅北パーキング,滋賀県,滋賀県大津市大萱2-28,35,300,700,,34.98604521,135.9234894,2026-06-30T09:04:43.349Z,https://parking.npc-npc.co.jp/p/25/1188
NPC,NPC24H草津本陣パーキング,滋賀県,滋賀県草津市草津2-10,11,400,1000,400,35.01624777,135.9598498,2026-06-30T09:04:43.349Z,https://parking.npc-npc.co.jp/p/25/1192
NPC,NPC24Hアル・プラザ栗東パーキング,滋賀県,滋賀県栗東市綣2-3-22,690,,500,,35.0362883,135.9826861,2026-06-30T09:04:43.349Z,https://parking.npc-npc.co.jp/p/25/1194
NPC,NPC24H cocotto MORIYAMAパーキング,滋賀県,滋賀県守山市勝部1-2-31,184,,900,,35.0502057,135.994341,2026-06-30T09:04:43.349Z,https://parking.npc-npc.co.jp/p/25/1193
NPC,NPC24H守山駅東口パーキング,滋賀県,滋賀県守山市浮気町301-5,236,200,800,,35.05206269,135.9978892,2026-06-30T09:04:43.349Z,https://parking.npc-npc.co.jp/p/25/1193
NPC,NPC24H野洲駅前第2パーキング,滋賀県,滋賀県野洲市北野1-3-6,42,300,700,,35.06839384,136.0208966,2026-06-30T09:04:43.349Z,https://parking.npc-npc.co.jp/p/25/1196
NPC,NPC24H野洲駅前第4パーキング,滋賀県,滋賀県野洲市北野1-5-5,34,300,700,500,35.0693258,136.0209497,2026-06-30T09:04:43.349Z,https://parking.npc-npc.co.jp/p/25/1196
NPC,NPC24H野洲駅前第3パーキング,滋賀県,滋賀県野洲市北野1-9-15,33,300,900,,35.0693877,136.0227009,2026-06-30T09:04:43.349Z,https://parking.npc-npc.co.jp/p/25/1196
NPC,NPC24H野洲駅前パーキング,滋賀県,滋賀県野洲市小篠原2120番15,39,400,900,,35.0665018,136.02437685,2026-06-30T09:04:43.349Z,https://parking.npc-npc.co.jp/p/25/1196
NPC,NPC24H野洲駅前第5パーキング,滋賀県,滋賀県野洲市小篠原2105-4,16,400,800,300,35.06705649,136.0250018,2026-06-30T09:04:43.349Z,https://parking.npc-npc.co.jp/p/25/1196
NPC,NPC24Hフレンドマート八幡鷹飼店パーキング,滋賀県,滋賀県近江八幡市鷹飼町451-1,43,,400,,35.1207786,136.0993065,2026-06-30T09:04:43.349Z,https://parking.npc-npc.co.jp/p/25/1191
NPC,NPC24H近江八幡駅前パーキング,滋賀県,滋賀県近江八幡市鷹飼町457-1,121,200,500,,35.1215863,136.1002954,2026-06-30T09:04:43.349Z,https://parking.npc-npc.co.jp/p/25/1191
NPC,NPC24H近江八幡駅前第2パーキング,滋賀県,滋賀県近江八幡市鷹飼町522,321,200,500,,35.12231322,136.1006827,2026-06-30T09:04:43.349Z,https://parking.npc-npc.co.jp/p/25/1191
NPC,NPC24H近江八幡駅南パーキング,滋賀県,滋賀県近江八幡市鷹飼町南3-5,68,220,,,35.12237949,136.1044519,2026-06-30T09:04:43.349Z,https://parking.npc-npc.co.jp/p/25/1191
NPC,NPC24H近江八幡駅南第2パーキング,滋賀県,滋賀県近江八幡市鷹飼町南3-4-4,27,220,800,,35.12235568,136.1052684,2026-06-30T09:04:43.349Z,https://parking.npc-npc.co.jp/p/25/1191
NPC,NPC24Hフレンドマート能登川店第1パーキング,滋賀県,滋賀県東近江市垣見町1515,196,200,,,35.18128048,136.1645867,2026-06-30T09:04:43.349Z,https://parking.npc-npc.co.jp/p/25/1199
NPC,NPC24Hフレンドマート能登川店第3パーキング,滋賀県,滋賀県東近江市垣見町1500,292,200,800,,35.18125664,136.1660091,2026-06-30T09:04:43.349Z,https://parking.npc-npc.co.jp/p/25/1199
NPC,NPC24H敦賀駅前ottaパーキング,福井県,福井県敦賀市鉄輪町1丁目,31,100,,500,35.64470901,136.0740932,2026-06-30T09:04:43.349Z,https://parking.npc-npc.co.jp/p/18/879
NPC,NPC24H南彦根駅東口パーキング,滋賀県,滋賀県彦根市小泉町字中鶴田106-6,142,200,400,,35.24592576,136.2493968,2026-06-30T09:04:43.349Z,https://parking.npc-npc.co.jp/p/25/1189
NPC,NPC24Hアル・プラザ彦根パーキング,滋賀県,滋賀県彦根市大東町2-28,520,100,500,,35.27190182,136.2613197,2026-06-30T09:04:43.349Z,https://parking.npc-npc.co.jp/p/25/1189
NPC,NPC24Hモンデクール長浜パーキング,滋賀県,滋賀県長浜市北船町1-22,162,,600,,35.37778926,136.26615787,2026-06-30T09:04:43.349Z,https://parking.npc-npc.co.jp/p/25/1190
NPC,NPC24Hフレンドマート米原駅前店パーキング,滋賀県,滋賀県米原市下多良2丁目45番,68,330,700,,35.31445711,136.287141,2026-06-30T09:04:43.349Z,https://parking.npc-npc.co.jp/p/25/1200
NPC,NPC24H米原駅前第1パーキング,滋賀県,滋賀県米原市下多良2-13,45,200,700,,35.3135188,136.2875041,2026-06-30T09:04:43.349Z,https://parking.npc-npc.co.jp/p/25/1200
NPC,NPC24H津新町パーキング,三重県,三重県津市新町1-4-27,41,300,400,300,34.7152715,136.4995208,2026-06-30T09:04:43.349Z,https://parking.npc-npc.co.jp/p/24/1158
NPC,NPC24H桑名市総合医療センター第4駐車場,三重県,三重県桑名市寿町3-68,64,400,500,,35.06569378,136.68702619,2026-06-30T09:04:43.349Z,https://parking.npc-npc.co.jp/p/24/1162
NPC,NPC24H桑名市総合医療センター第1駐車場,三重県,三重県桑名市寿町3-65,52,400,,,35.06555046,136.68763597,2026-06-30T09:04:43.349Z,https://parking.npc-npc.co.jp/p/24/1162
NPC,NPC24H桑名市総合医療センター第2駐車場,三重県,三重県桑名市寿町3-13,123,400,400,,35.06622287,136.68784427,2026-06-30T09:04:43.349Z,https://parking.npc-npc.co.jp/p/24/1162
NPC,NPC24H桑名市総合医療センター第3駐車場,三重県,三重県桑名市寿町3-58,33,400,400,,35.06547425,136.68816882,2026-06-30T09:04:43.349Z,https://parking.npc-npc.co.jp/p/24/1162
NPC,NPC24H津島駅前パーキング,愛知県,愛知県津島市藤里町1-13-1,40,200,600,300,35.17876039,136.7315187,2026-06-30T09:04:43.349Z,https://parking.npc-npc.co.jp/p/23/1111
NPC,NPC24H岐阜南口第4パーキング,岐阜県,岐阜県岐阜市加納菱野町12-1,24,300,1000,,35.40808911,136.7552276,2026-06-30T09:04:43.349Z,https://parking.npc-npc.co.jp/p/21/1002
NPC,NPC24H岐阜南口パーキング,岐阜県,岐阜県岐阜市加納富士町2-30-1,40,300,1100,,35.40902386,136.7552885,2026-06-30T09:04:43.349Z,https://parking.npc-npc.co.jp/p/21/1002
NPC,NPC24H岐阜南口第2パーキング,岐阜県,岐阜県岐阜市加納清野町15,12,400,,,35.40819501,136.7570733,2026-06-30T09:04:43.349Z,https://parking.npc-npc.co.jp/p/21/1002
NPC,NPC24H岐阜吉津町パーキング,岐阜県,岐阜県岐阜市吉津町2-25-1,13,300,800,400,35.41531802,136.76123209,2026-06-30T09:04:43.349Z,https://parking.npc-npc.co.jp/p/21/1002
NPC,NPC24H岐阜城公園前パーキング,岐阜県,岐阜県岐阜市木挽町28,20,200,600,,35.43433331,136.77124716,2026-06-30T09:04:43.349Z,https://parking.npc-npc.co.jp/p/21/1002
NPC,NPC24H鴨付町1丁目パーキング,愛知県,愛知県名古屋市中村区鴨付町1-24,6,300,600,300,35.16242153,136.8447374,2026-06-30T09:04:43.349Z,https://parking.npc-npc.co.jp/p/23/1092
NPC,NPC24H稲葉地町8丁目パーキング,愛知県,愛知県名古屋市中村区稲葉地町8-12,10,300,600,300,35.1625837,136.8450289,2026-06-30T09:04:43.349Z,https://parking.npc-npc.co.jp/p/23/1092
NPC,NPC24H中島町3丁目パーキング,愛知県,愛知県名古屋市中村区中島町3-51,6,200,600,300,35.170217,136.87183,2026-06-30T09:04:43.349Z,https://parking.npc-npc.co.jp/p/23/1092
NPC,NPC24H亀島2丁目パーキング,愛知県,愛知県名古屋市中村区亀島2-16,30,200,800,300,35.17478152,136.8757217,2026-06-30T09:04:43.349Z,https://parking.npc-npc.co.jp/p/23/1092
NPC,NPC24H則武第2パーキング,愛知県,愛知県名古屋市中村区則武2-5-6,6,600,,,35.17075986,136.8771937,2026-06-30T09:04:43.349Z,https://parking.npc-npc.co.jp/p/23/1092
NPC,NPC24H則武第3パーキング,愛知県,愛知県名古屋市中村区則武2丁目2-13,15,600,,300,35.17119604,136.87774723,2026-06-30T09:04:43.349Z,https://parking.npc-npc.co.jp/p/23/1092
NPC,NPC24H名駅2丁目パーキング,愛知県,愛知県名古屋市西区名駅2-8-1,8,200,,400,35.17728056,136.8845414,2026-06-30T09:04:43.349Z,https://parking.npc-npc.co.jp/p/23/1091
NPC,NPC24H名駅3丁目パーキング,愛知県,愛知県名古屋市中村区名駅3-17-20,92,1600,,1100,35.1729356,136.8859743,2026-06-30T09:04:43.349Z,https://parking.npc-npc.co.jp/p/23/1092
NPC,NPC24H名駅3丁目第3パーキング,愛知県,愛知県名古屋市中村区名駅3-1703-2,8,1980,,,35.17285539,136.88599295,2026-06-30T09:04:43.349Z,https://parking.npc-npc.co.jp/p/23/1092
NPC,NPC24H名駅南第7パーキング,愛知県,愛知県名古屋市中村区名駅南1-23-9,7,600,,,35.16636735,136.88649834,2026-06-30T09:04:43.349Z,https://parking.npc-npc.co.jp/p/23/1092
NPC,NPC24H名駅南第3パーキング,愛知県,愛知県名古屋市中村区名駅南1丁目19-19,7,600,,600,35.16680914,136.8868427,2026-06-30T09:04:43.349Z,https://parking.npc-npc.co.jp/p/23/1092
NPC,NPC24H名駅3丁目第2パーキング,愛知県,愛知県名古屋市西区名駅3丁目10-22,4,600,1200,400,35.17500924,136.8863023,2026-06-30T09:04:43.349Z,https://parking.npc-npc.co.jp/p/23/1091
NPC,NPC24H新道1丁目パーキング,愛知県,愛知県名古屋市西区新道1-23-3,9,,,400,35.18276293,136.8870291,2026-06-30T09:04:43.349Z,https://parking.npc-npc.co.jp/p/23/1091
NPC,NPC24H名駅南第5パーキング,愛知県,愛知県名古屋市中村区名駅南2丁目9-2,13,600,1200,500,35.16518218,136.8893251,2026-06-30T09:04:43.349Z,https://parking.npc-npc.co.jp/p/23/1092
NPC,NPC24H名駅南第1パーキング,愛知県,愛知県名古屋市中村区名駅南2-8-2,3,400,,500,35.16569,136.889566,2026-06-30T09:04:43.349Z,https://parking.npc-npc.co.jp/p/23/1092
NPC,NPC24H名駅4丁目パーキング,愛知県,愛知県名古屋市中村区名駅4丁目17-19,36,800,,,35.17164818,136.88918965,2026-06-30T09:04:43.349Z,https://parking.npc-npc.co.jp/p/23/1092
NPC,NPC24H名古屋観光ホテル駐車場,愛知県,愛知県名古屋市中区錦1丁目19-30,114,1200,1800,,35.16882636,136.89488935,2026-06-30T09:04:43.349Z,https://parking.npc-npc.co.jp/p/23/1093
NPC,NPC24Hクイックパーキング栄一丁目,愛知県,愛知県名古屋市中区栄1-4-31,76,600,1800,,35.16759423,136.8950887,2026-06-30T09:04:43.349Z,https://parking.npc-npc.co.jp/p/23/1093
NPC,NPC24H栄1丁目第5パーキング,愛知県,愛知県名古屋市中区栄1-4-5,50,600,2000,700,35.16746255,136.8959354,2026-06-30T09:04:43.349Z,https://parking.npc-npc.co.jp/p/23/1093
NPC,NPC24H金山第4パーキング,愛知県,愛知県名古屋市中区正木4-6-14,41,400,900,500,35.1431593,136.89790086,2026-06-30T09:04:43.349Z,https://parking.npc-npc.co.jp/p/23/1093
NPC,NPC24H栄一丁目第4パーキング,愛知県,愛知県名古屋市中区栄1-6-1,18,900,,,35.16752175,136.896437,2026-06-30T09:04:43.349Z,https://parking.npc-npc.co.jp/p/23/1093
NPC,NPC24H金山第2パーキング,愛知県,愛知県名古屋市中区正木4-8-13,26,600,,,35.142703,136.898391,2026-06-30T09:04:43.349Z,https://parking.npc-npc.co.jp/p/23/1093
NPC,NPC24H金山第3パーキング,愛知県,愛知県名古屋市熱田区新尾頭1-6-1,14,600,,,35.142391,136.898493,2026-06-30T09:04:43.349Z,https://parking.npc-npc.co.jp/p/23/1096
NPC,NPC24H三蔵パーキング,愛知県,愛知県名古屋市中区栄2-10-5,193,600,,600,35.16614455,136.8986933,2026-06-30T09:04:43.349Z,https://parking.npc-npc.co.jp/p/23/1093
NPC,NPC24H三蔵第2駐車場,愛知県,愛知県名古屋市中区栄2-11-5,28,600,,600,35.16627194,136.899551,2026-06-30T09:04:43.349Z,https://parking.npc-npc.co.jp/p/23/1093
NPC,NPC24H白川公園第2パーキング,愛知県,愛知県名古屋市中区栄2-11-14,16,800,,600,35.16583348,136.8999191,2026-06-30T09:04:43.349Z,https://parking.npc-npc.co.jp/p/23/1093
NPC,NPC24H大須パーキング,愛知県,愛知県名古屋市中区大須2丁目20-12,140,300,800,,35.15996068,136.9003544,2026-06-30T09:04:43.349Z,https://parking.npc-npc.co.jp/p/23/1093
NPC,NPC24H三蔵通パーキング,愛知県,愛知県名古屋市中区栄2-12-33,43,600,,800,35.16627181,136.9006059,2026-06-30T09:04:43.349Z,https://parking.npc-npc.co.jp/p/23/1093
NPC,NPC24H大須第6パーキング,愛知県,愛知県名古屋市中区大須2-19-8,9,300,,,35.15994288,136.90103538,2026-06-30T09:04:43.349Z,https://parking.npc-npc.co.jp/p/23/1093
NPC,NPC24H錦2丁目パーキング,愛知県,愛知県名古屋市中区錦2丁目3-16,45,1200,,1000,35.17228839,136.9004227,2026-06-30T09:04:43.349Z,https://parking.npc-npc.co.jp/p/23/1093
NPC,NPC24H白川公園第3パーキング,愛知県,愛知県名古屋市中区栄2丁目1215番,7,400,1800,600,35.16582693,136.9012241,2026-06-30T09:04:43.349Z,https://parking.npc-npc.co.jp/p/23/1093
NPC,NPC24H丸の内2丁目パーキング,愛知県,愛知県名古屋市中区丸の内2丁目4-7,98,600,1600,400,35.17738716,136.90119287,2026-06-30T09:04:43.349Z,https://parking.npc-npc.co.jp/p/23/1093
NPC,NPC24H大須第2パーキング,愛知県,愛知県名古屋市中区大須3-15-30,11,600,,,35.16020912,136.9029556,2026-06-30T09:04:43.349Z,https://parking.npc-npc.co.jp/p/23/1093
NPC,NPC24H大須第5パーキング,愛知県,愛知県名古屋市中区大須3丁目23-7,3,200,,400,35.16004125,136.9032873,2026-06-30T09:04:43.349Z,https://parking.npc-npc.co.jp/p/23/1093
NPC,NPC24H栄3丁目第3パーキング,愛知県,愛知県名古屋市中区栄3丁目21-12,5,900,,,35.16499142,136.903459,2026-06-30T09:04:43.349Z,https://parking.npc-npc.co.jp/p/23/1093
NPC,NPC24H大須第4パーキング,愛知県,愛知県名古屋市中区大須3丁目28-8,10,600,,,35.15925512,136.9043629,2026-06-30T09:04:43.349Z,https://parking.npc-npc.co.jp/p/23/1093
NPC,NPC24H栄3丁目第2パーキング,愛知県,愛知県名古屋市中区栄3丁目34番38号,92,800,,900,35.1632811,136.9041832,2026-06-30T09:04:43.349Z,https://parking.npc-npc.co.jp/p/23/1093
NPC,NPC24H錦3丁目第4パーキング,愛知県,愛知県名古屋市中区錦3丁目2-4,53,800,,2100,35.17325229,136.9036003,2026-06-30T09:04:43.349Z,https://parking.npc-npc.co.jp/p/23/1093
NPC,NPC24H錦3丁目第2パーキング,愛知県,愛知県名古屋市中区錦3-2-13,7,600,,,35.17309764,136.9039887,2026-06-30T09:04:43.349Z,https://parking.npc-npc.co.jp/p/23/1093
NPC,NPC24H大須第7パーキング,愛知県,愛知県名古屋市中区大須4-10,25,600,,,35.15875554,136.90619017,2026-06-30T09:04:43.349Z,https://parking.npc-npc.co.jp/p/23/1093
NPC,NPC24H栄三丁目パーキング,愛知県,愛知県名古屋市中区栄3-7-20,21,600,1800,600,35.16693689,136.906486,2026-06-30T09:04:43.349Z,https://parking.npc-npc.co.jp/p/23/1093
NPC,NPC24H大須第8パーキング,愛知県,愛知県名古屋市中区大須4-9-60,26,400,1400,,35.15862332,136.90782803,2026-06-30T09:04:43.349Z,https://parking.npc-npc.co.jp/p/23/1093
NPC,NPC24H丸の内3丁目パーキング,愛知県,愛知県名古屋市中区丸の内3丁目18-6,19,900,,700,35.17554473,136.9069351,2026-06-30T09:04:43.349Z,https://parking.npc-npc.co.jp/p/23/1093
NPC,NPC24Hクイック錦3丁目パーキング,愛知県,愛知県名古屋市中区錦3-5-19,120,800,,,35.17279034,136.9073455,2026-06-30T09:04:43.349Z,https://parking.npc-npc.co.jp/p/23/1093
NPC,NPC24H錦3丁目第3パーキング,愛知県,愛知県名古屋市中区錦3丁目5-18,15,600,,,35.1727532,136.9074877,2026-06-30T09:04:43.349Z,https://parking.npc-npc.co.jp/p/23/1093
NPC,NPC24H栄5丁目第3パーキング,愛知県,愛知県名古屋市中区栄5-2,23,600,,900,35.16435928,136.91021909,2026-06-30T09:04:43.349Z,https://parking.npc-npc.co.jp/p/23/1093
NPC,NPC24H熱田神宮前パーキング,愛知県,愛知県名古屋市熱田区三本松町7-4,3,300,,500,35.127941,136.913164,2026-06-30T09:04:43.349Z,https://parking.npc-npc.co.jp/p/23/1096
NPC,NPC24H花表町第2パーキング,愛知県,愛知県名古屋市熱田区花表町14-12,8,200,700,400,35.12545473,136.9155835,2026-06-30T09:04:43.349Z,https://parking.npc-npc.co.jp/p/23/1096
NPC,NPC24H東新町パーキング,愛知県,愛知県名古屋市中区栄4-8-3,34,600,,1200,35.16742217,136.913286,2026-06-30T09:04:43.349Z,https://parking.npc-npc.co.jp/p/23/1093
NPC,NPC24H花表町パーキング,愛知県,愛知県名古屋市熱田区花表町4-1,3,400,,400,35.127923,136.915968,2026-06-30T09:04:43.349Z,https://parking.npc-npc.co.jp/p/23/1096
NPC,NPC24H新栄2丁目第2パーキング,愛知県,愛知県名古屋市中区新栄2-21-14,25,400,1200,,35.16758753,136.91982048,2026-06-30T09:04:43.349Z,https://parking.npc-npc.co.jp/p/23/1093
NPC,NPC24H新栄2丁目第3パーキング,愛知県,愛知県名古屋市中区新栄2丁目2-24,46,400,,500,35.1692616,136.9219785,2026-06-30T09:04:43.349Z,https://parking.npc-npc.co.jp/p/23/1093
NPC,新栄パーキングⅠ,愛知県,愛知県名古屋市中区新栄2-4-21,7,200,,,35.169357,136.92287,2026-06-30T09:04:43.349Z,https://parking.npc-npc.co.jp/p/23/1093
NPC,NPC24H新栄3丁目パーキング,愛知県,愛知県名古屋市中区新栄3-17-12,10,400,800,400,35.166309,136.925529,2026-06-30T09:04:43.349Z,https://parking.npc-npc.co.jp/p/23/1093
NPC,NPC24H新栄3丁目第2パーキング,愛知県,愛知県名古屋市中区新栄3丁目2-13,32,400,,500,35.16912543,136.9257246,2026-06-30T09:04:43.349Z,https://parking.npc-npc.co.jp/p/23/1093
NPC,NPC24H車道町パーキング,愛知県,愛知県名古屋市東区車道町1丁目13,12,200,600,,35.1793008,136.9306298,2026-06-30T09:04:43.349Z,https://parking.npc-npc.co.jp/p/23/1089
NPC,NPC24H内山パーキング,愛知県,愛知県名古屋市千種区内山1-7-17,5,400,600,400,35.17384693,136.9354085,2026-06-30T09:04:43.349Z,https://parking.npc-npc.co.jp/p/23/1088
NPC,NPC24H今池駅前パーキング,愛知県,愛知県名古屋市千種区内山3-8-6,28,400,900,500,35.17133448,136.93677797,2026-06-30T09:04:43.349Z,https://parking.npc-npc.co.jp/p/23/1088
NPC,NPC24Hユーストア萱場店パーキング,愛知県,愛知県名古屋市千種区萱場2丁目15,33,200,400,,35.18418622,136.9478415,2026-06-30T09:04:43.349Z,https://parking.npc-npc.co.jp/p/23/1088
NPC,いずみパーキング本山駅前,愛知県,愛知県名古屋市千種区本山町4-50,27,,,300,35.16473008,136.96298628,2026-06-30T09:04:43.349Z,https://parking.npc-npc.co.jp/p/23/1088
NPC,NPC24H相生山駅前パーキング,愛知県,愛知県名古屋市緑区ほら貝1丁目78番1,15,200,500,300,35.10228242,136.9792609,2026-06-30T09:04:43.349Z,https://parking.npc-npc.co.jp/p/23/1101
NPC,NPC24Hヒルズウォーク徳重パーキング,愛知県,愛知県名古屋市緑区元徳重1丁目505,1115,,700,,35.09429007,136.998774,2026-06-30T09:04:43.349Z,https://parking.npc-npc.co.jp/p/23/1101
NPC,NPC24H上社第1パーキング,愛知県,愛知県名古屋市名東区上社2-203,24,300,900,400,35.174614,137.01141,2026-06-30T09:04:43.349Z,https://parking.npc-npc.co.jp/p/23/1102
NPC,NPC24H藤が丘駅前パーキング,愛知県,愛知県名古屋市名東区藤見が丘8,15,200,800,,35.18162564,137.02100717,2026-06-30T09:04:43.349Z,https://parking.npc-npc.co.jp/p/23/1102
NPC,NPC24H豊田桜町1丁目パーキング,愛知県,愛知県豊田市桜町1丁目9,4,300,1200,400,35.08546819,137.1589599,2026-06-30T09:04:43.349Z,https://parking.npc-npc.co.jp/p/23/1114
NPC,NPC24H豊田元城町1丁目パーキング,愛知県,愛知県豊田市元城町1丁目60番1,7,200,1000,400,35.08409112,137.1595027,2026-06-30T09:04:43.349Z,https://parking.npc-npc.co.jp/p/23/1114
NPC,NPC24H殿橋第1パーキング,愛知県,愛知県岡崎市康生通南2-34,5,400,,,34.955963,137.164234,2026-06-30T09:04:43.349Z,https://parking.npc-npc.co.jp/p/23/1105
NPC,NPC24H大分都町パーキング,大分県,大分県大分市都町2-7-18,234,200,,,33.24215742,131.60536664,2026-06-30T09:04:43.349Z,https://parking.npc-npc.co.jp/p/44/1835
NPC,NPC24Hクボタ三清パーキング,大分県,大分県大分市都町1丁目2,54,400,,1000,33.24077554,131.6067842,2026-06-30T09:04:43.349Z,https://parking.npc-npc.co.jp/p/44/1835
NPC,NPC24H金沢野町パーキング,石川県,石川県金沢市野町2-4-11,16,220,,,36.55425088,136.6468531,2026-06-30T09:04:43.349Z,https://parking.npc-npc.co.jp/p/17/858
NPC,NPC24H大分駅北口パーキング,大分県,大分県大分市要町2,281,400,700,,33.23206201,131.609626,2026-06-30T09:04:43.349Z,https://parking.npc-npc.co.jp/p/44/1835
NPC,NPC24H大分中央町3丁目第3パーキング,大分県,大分県大分市中央町3丁目2-1,36,200,700,,33.23675203,131.6044761,2026-06-30T09:04:43.349Z,https://parking.npc-npc.co.jp/p/44/1835
NPC,NPC24H大分中央町3丁目第2パーキング,大分県,大分県大分市中央町3丁目1-11付近,24,150,700,500,33.23701788,131.6037439,2026-06-30T09:04:43.349Z,https://parking.npc-npc.co.jp/p/44/1835
NPC,NPC24H大分中央町3丁目第1パーキング,大分県,大分県大分市中央町3丁目1-11付近,29,200,800,600,33.23706948,131.6036447,2026-06-30T09:04:43.349Z,https://parking.npc-npc.co.jp/p/44/1835
NPC,NPC24H大分中央町4丁目パーキング,大分県,大分県大分市中央町4丁目1‐16,15,120,,,33.2377369,131.6026965,2026-06-30T09:04:43.349Z,https://parking.npc-npc.co.jp/p/44/1835
NPC,NPC24H金沢竪町パーキング,石川県,石川県金沢市池田町三番丁30-4,8,300,,800,36.55836408,136.6538047,2026-06-30T09:04:43.349Z,https://parking.npc-npc.co.jp/p/17/858
NPC,NPC24H金沢片町1丁目パーキング,石川県,石川県金沢市片町1丁目12-17付近,4,330,,1100,36.55987634,136.6534798,2026-06-30T09:04:43.349Z,https://parking.npc-npc.co.jp/p/17/858
NPC,NPC24H金沢広岡2丁目パーキング,石川県,石川県金沢市広岡2丁目3,181,100,700,,36.57773246,136.6415735,2026-06-30T09:04:43.349Z,https://parking.npc-npc.co.jp/p/17/858
NPC,NPC24H金沢高岡町パーキング,石川県,石川県金沢市高岡町2-28付近,14,220,1000,,36.56876075,136.6539841,2026-06-30T09:04:43.349Z,https://parking.npc-npc.co.jp/p/17/858
NPC,NPC24H金沢尾山町パーキング,石川県,石川県金沢市尾山町6-12付近,22,440,1000,,36.56900418,136.6554807,2026-06-30T09:04:43.349Z,https://parking.npc-npc.co.jp/p/17/858
NPC,NPC24H金沢駅西口パーキング,石川県,石川県金沢市広岡3-103,148,300,1000,500,36.5805881,136.6452982,2026-06-30T09:04:43.349Z,https://parking.npc-npc.co.jp/p/17/858
NPC,NPC24Hクロスゲート金沢パーキング,石川県,石川県金沢市広岡1-5-1,143,,1400,,36.58039684,136.6481583,2026-06-30T09:04:43.349Z,https://parking.npc-npc.co.jp/p/17/858
NPC,NPC24H下関駅西口パーキング,山口県,山口県下関市大和町1丁目2-8,59,400,600,,33.95035716,130.9213551,2026-06-30T09:04:43.349Z,https://parking.npc-npc.co.jp/p/35/1547
NPC,NPC24H豊橋駅前パーキング,愛知県,愛知県豊橋市白河町11,32,600,1400,500,34.76159209,137.3799766,2026-06-30T09:04:43.349Z,https://parking.npc-npc.co.jp/p/23/1104
NPC,NPC24H湯布院湯の坪街道パーキング,大分県,大分県由布市湯布院町川上3001‐4,61,400,700,,33.2661843,131.3616866,2026-06-30T09:04:43.349Z,https://parking.npc-npc.co.jp/p/44/1847
NPC,NPC24H由布院駅前パーキング,大分県,大分県由布市湯布院町川北7-5,31,220,600,,33.26164198,131.3561131,2026-06-30T09:04:43.349Z,https://parking.npc-npc.co.jp/p/44/1847
NPC,NPC24H小倉鍛冶町第2パーキング,福岡県,福岡県北九州市小倉北区鍛冶町2-3-23,12,200,,,33.88198293,130.88595829,2026-06-30T09:04:43.349Z,https://parking.npc-npc.co.jp/p/40/1670
NPC,NPC24H小倉鍛冶町パーキング,福岡県,福岡県北九州市小倉北区鍛冶町2丁目1-14,25,150,,600,33.88271628,130.88551,2026-06-30T09:04:43.349Z,https://parking.npc-npc.co.jp/p/40/1670
NPC,NPC24H小倉北区室町2丁目パーキング,福岡県,福岡県北九州市小倉北区室町2-6,13,400,900,500,33.88705464,130.8750208,2026-06-30T09:04:43.349Z,https://parking.npc-npc.co.jp/p/40/1670
NPC,NPC24H九州工大前パーキング,福岡県,福岡県北九州市戸畑区中原西2-13-4,4,330,800,500,33.89871877,130.8404198,2026-06-30T09:04:43.349Z,https://parking.npc-npc.co.jp/p/40/1669
NPC,NPC24H高岡駅南第2パーキング,富山県,富山県高岡市駅南5-3-5,50,100,400,,36.73931035,137.014802,2026-06-30T09:04:43.349Z,https://parking.npc-npc.co.jp/p/16/843
NPC,NPC24H高岡駅前パーキング,富山県,富山県高岡市御旅屋町51,335,100,500,,36.74304938,137.015483,2026-06-30T09:04:43.349Z,https://parking.npc-npc.co.jp/p/16/843
NPC,NPC24H浜松栄町パーキング,静岡県,静岡県浜松市中央区栄町302-17,10,200,500,,34.70501741,137.72537255,2026-06-30T09:04:43.349Z,https://parking.npc-npc.co.jp/p/22/1050
NPC,NPC24H浜松連尺町第2パーキング,静岡県,静岡県浜松市中央区連尺町309-1,32,200,,300,34.70744023,137.7274847,2026-06-30T09:04:43.349Z,https://parking.npc-npc.co.jp/p/22/1050
NPC,NPC24H浜松千歳町第3パーキング,静岡県,静岡県浜松市中央区千歳町130,15,300,,,34.7037518,137.7293408,2026-06-30T09:04:43.349Z,https://parking.npc-npc.co.jp/p/22/1050
NPC,NPC24H浜松駅西第2パーキング,静岡県,静岡県浜松市中央区海老塚町2-7,9,200,600,400,34.70116406,137.7300247,2026-06-30T09:04:43.349Z,https://parking.npc-npc.co.jp/p/22/1050
NPC,NPC24H浜松千歳町第2パーキング,静岡県,静岡県浜松市中央区千歳町88-1,13,300,,,34.70296458,137.7308387,2026-06-30T09:04:43.349Z,https://parking.npc-npc.co.jp/p/22/1050
NPC,NPC24H浜松千歳町パーキング,静岡県,静岡県浜松市中央区千歳町105-1,313,300,900,700,34.70467664,137.7313496,2026-06-30T09:04:43.349Z,https://parking.npc-npc.co.jp/p/22/1050
NPC,NPC24H浜松板屋町第2パーキング,静岡県,静岡県浜松市中央区板屋町708付近,16,400,,,34.70648512,137.7362849,2026-06-30T09:04:43.349Z,https://parking.npc-npc.co.jp/p/22/1050
NPC,NPC24H浜松駅東第2パーキング,静岡県,静岡県浜松市中区砂山町326-9，375-8，921-1,70,400,1800,,34.70398683,137.7359738,2026-06-30T09:04:43.349Z,https://parking.npc-npc.co.jp/p/22/1050
NPC,NPC24H浜松駅東パーキング,静岡県,静岡県浜松市中区砂山町7-1、7-2,65,400,1300,,34.70525252,137.7377802,2026-06-30T09:04:43.349Z,https://parking.npc-npc.co.jp/p/22/1050
NPC,NPC24H富山総曲輪パーキング,富山県,富山県富山市総曲輪4-6-2,7,220,700,,36.68964349,137.2107103,2026-06-30T09:04:43.349Z,https://parking.npc-npc.co.jp/p/16/842
NPC,NPC24Hユウタウン総曲輪パーキング,富山県,富山県富山市総曲輪3-1,425,200,1000,,36.69022032,137.2120114,2026-06-30T09:04:43.349Z,https://parking.npc-npc.co.jp/p/16/842
NPC,NPC24H富山蛯町パーキング,富山県,富山県富山市蛯町1-10,26,220,,,36.69113703,137.2167219,2026-06-30T09:04:43.349Z,https://parking.npc-npc.co.jp/p/16/842
NPC,NPC24H東郷駅北口パーキング,福岡県,福岡県宗像市田熊4丁目13,77,220,600,,33.7950026,130.5278597,2026-06-30T09:04:43.349Z,https://parking.npc-npc.co.jp/p/40/1698
NPC,NPC24H富山新桜町パーキング,富山県,富山県富山市新桜町9-7,22,200,900,600,36.6965375,137.2148216,2026-06-30T09:04:43.349Z,https://parking.npc-npc.co.jp/p/16/842
NPC,NPC24H富山駅前スクエアパーキング,富山県,富山県富山市桜町1-5-1,191,200,800,,36.69931938,137.21376645,2026-06-30T09:04:43.349Z,https://parking.npc-npc.co.jp/p/16/842
NPC,NPC24H富山駅北口第2パーキング,富山県,富山県富山市牛島本町2丁目6,19,110,600,,36.70523639,137.2094494,2026-06-30T09:04:43.349Z,https://parking.npc-npc.co.jp/p/16/842
NPC,NPC24H富山新桜町第2パーキング,富山県,富山県富山市新桜町1番1号,128,200,900,,36.69837478,137.2153724,2026-06-30T09:04:43.349Z,https://parking.npc-npc.co.jp/p/16/842
NPC,NPC24H富山駅北口パーキング,富山県,富山県富山市牛島新町2-1,24,200,900,400,36.70405254,137.2157181,2026-06-30T09:04:43.349Z,https://parking.npc-npc.co.jp/p/16/842
NPC,NPC24H福岡和白病院第1パーキング,福岡県,福岡県福岡市東区和白丘2-2-75,110,200,,,33.69253703,130.43399768,2026-06-30T09:04:43.349Z,https://parking.npc-npc.co.jp/p/40/1675
NPC,NPC24H和白丘パーキング,福岡県,福岡県福岡市東区和白丘2-1,185,200,,,33.69185247,130.4329839,2026-06-30T09:04:43.349Z,https://parking.npc-npc.co.jp/p/40/1675
NPC,NPC24H原田2丁目パーキング,福岡県,福岡県福岡市東区原田2-1362-1,51,440,700,,33.62024248,130.43217575,2026-06-30T09:04:43.349Z,https://parking.npc-npc.co.jp/p/40/1675
NPC,NPC24H吉塚6丁目パーキング,福岡県,福岡県福岡市博多区吉塚6丁目14,14,220,700,,33.60752648,130.4250498,2026-06-30T09:04:43.349Z,https://parking.npc-npc.co.jp/p/40/1676
NPC,NPC24H春日駅前パーキング,福岡県,福岡県春日市千歳町1丁目25-4,8,220,700,400,33.53516944,130.4679582,2026-06-30T09:04:43.349Z,https://parking.npc-npc.co.jp/p/40/1696
NPC,NPC24H吉塚2丁目第2パーキング,福岡県,福岡県福岡市博多区吉塚2-1,0,200,,,33.60425697,130.42517579,2026-06-30T09:04:43.349Z,https://parking.npc-npc.co.jp/p/40/1676
NPC,NPC24H東比恵3丁目第2パーキング,福岡県,福岡県福岡市博多区東比恵3-17-8,100,220,800,,33.59065333,130.43264227,2026-06-30T09:04:43.349Z,https://parking.npc-npc.co.jp/p/40/1676
NPC,NPC24H博多駅東1丁目第2パーキング,福岡県,福岡県福岡市博多区博多駅東1-9,39,600,1600,900,33.59265731,130.4236624,2026-06-30T09:04:43.349Z,https://parking.npc-npc.co.jp/p/40/1676
NPC,NPC24H博多駅前1丁目パーキング,福岡県,福岡県福岡市博多区博多駅前1-22-24,5,880,,500,33.59377528,130.41888187,2026-06-30T09:04:43.349Z,https://parking.npc-npc.co.jp/p/40/1676
NPC,NPC24Hヨドバシ博多パーキング,福岡県,福岡県福岡市博多区博多駅中央街6-12,1125,600,1500,,33.58779951,130.4214523,2026-06-30T09:04:43.349Z,https://parking.npc-npc.co.jp/p/40/1676
NPC,NPC24H博多駅南高架下第1パーキング,福岡県,福岡県福岡市博多区博多駅前4-38,25,220,1200,500,33.58272991,130.4206055,2026-06-30T09:04:43.349Z,https://parking.npc-npc.co.jp/p/40/1676
NPC,NPC24H博多駅南高架下第2パーキング,福岡県,福岡県福岡市博多区博多駅前4-38,14,220,1100,500,33.5820819,130.4207799,2026-06-30T09:04:43.349Z,https://parking.npc-npc.co.jp/p/40/1676
NPC,NPC24H石城町パーキング,福岡県,福岡県福岡市博多区石城町16,246,400,600,,33.60609293,130.4057643,2026-06-30T09:04:43.349Z,https://parking.npc-npc.co.jp/p/40/1676
NPC,NPC24H美野島2丁目パーキング,福岡県,福岡県福岡市博多区美野島2丁目4-1,8,330,1200,,33.57976837,130.4196801,2026-06-30T09:04:43.349Z,https://parking.npc-npc.co.jp/p/40/1676
NPC,NPC24Hアパホテル博多駅前3丁目パーキング,福岡県,福岡県福岡市博多区博多駅前3丁目11-6,3,300,,500,33.58682492,130.414836,2026-06-30T09:04:43.349Z,https://parking.npc-npc.co.jp/p/40/1676
NPC,NPC24H博多区奈良屋町パーキング,福岡県,福岡県福岡市博多区奈良屋町5-17,4,440,,500,33.59908704,130.4056754,2026-06-30T09:04:43.349Z,https://parking.npc-npc.co.jp/p/40/1676
NPC,NPC24H博多区神屋町パーキング,福岡県,福岡県福岡市博多区神屋町9-16,17,330,1000,,33.60191651,130.40313578,2026-06-30T09:04:43.349Z,https://parking.npc-npc.co.jp/p/40/1676
NPC,NPC24H大楠1丁目パーキング,福岡県,福岡県福岡市南区大楠1丁目30-21付近,19,220,700,,33.57065487,130.4166136,2026-06-30T09:04:43.349Z,https://parking.npc-npc.co.jp/p/40/1678
NPC,須崎公園駐車場,福岡県,福岡県福岡市中央区天神5丁目2-1,37,400,1000,400,33.59768651,130.39868716,2026-06-30T09:04:43.349Z,https://parking.npc-npc.co.jp/p/40/1677
NPC,福岡市民ホール駐車場,福岡県,福岡県福岡市中央区天神5丁目2-2,74,400,,,33.59673492,130.3977749,2026-06-30T09:04:43.349Z,https://parking.npc-npc.co.jp/p/40/1677
NPC,NPC24H福岡大宮2丁目パーキング,福岡県,福岡県福岡市中央区大宮2丁目2-25,8,440,1100,400,33.57603428,130.4037088,2026-06-30T09:04:43.349Z,https://parking.npc-npc.co.jp/p/40/1677
NPC,NPC24H薬院2丁目パーキング,福岡県,福岡県福岡市中央区薬院2-18-29,23,440,1100,500,33.58256165,130.39306706,2026-06-30T09:04:43.349Z,https://parking.npc-npc.co.jp/p/40/1677
NPC,NPC24H福岡赤坂1丁目パーキング,福岡県,福岡県福岡市中央区赤坂1-4,40,600,1600,600,33.5864096,130.38962522,2026-06-30T09:04:43.349Z,https://parking.npc-npc.co.jp/p/40/1677
NPC,NPC24H大手門1丁目第2パーキング,,福岡市中央区大手門1丁目4-25,15,660,1800,,33.58919908,130.38511145,2026-06-30T09:04:43.349Z,https://parking.npc-npc.co.jp/p/40/1677
NPC,NPC24Hドン・キホーテ西鉄久留米店パーキング,福岡県,福岡県久留米市大手町1-5,16,150,,,33.3135189,130.5229961,2026-06-30T09:04:43.349Z,https://parking.npc-npc.co.jp/p/40/1683
NPC,NPC24H原4丁目パーキング,福岡県,福岡県福岡市早良区原4丁目18‐25,7,165,,400,33.56945511,130.3384601,2026-06-30T09:04:43.349Z,https://parking.npc-npc.co.jp/p/40/1681
NPC,NPC24H橋本駅第1パーキング,福岡県,福岡県福岡市西区橋本2丁目37,103,200,800,,33.55452933,130.3216132,2026-06-30T09:04:43.349Z,https://parking.npc-npc.co.jp/p/40/1679
NPC,NPC24H塩尻駅西口パーキング,長野県,長野県塩尻市大門57-11,24,300,600,,36.11487981,137.9471243,2026-06-30T09:04:43.349Z,https://parking.npc-npc.co.jp/p/20/938
NPC,NPC24H塩尻駅東口パーキング,長野県,長野県塩尻市大門八番町9-46,9,400,1500,,36.11367841,137.9486584,2026-06-30T09:04:43.349Z,https://parking.npc-npc.co.jp/p/20/938
NPC,NPC24H松本駅西口パーキング,長野県,長野県松本市巾上3,14,400,1100,,36.23123221,137.9630831,2026-06-30T09:04:43.349Z,https://parking.npc-npc.co.jp/p/20/925
NPC,NPC24H松本中央1丁目パーキング,長野県,長野県松本市中央1-4-14,27,480,,,36.23165777,137.9670355,2026-06-30T09:04:43.349Z,https://parking.npc-npc.co.jp/p/20/925
NPC,NPC24H松本大手2丁目パーキング,長野県,長野県松本市大手2-8,10,200,700,,36.2371583,137.96715788,2026-06-30T09:04:43.349Z,https://parking.npc-npc.co.jp/p/20/925
NPC,NPC24H松本深志2丁目パーキング,長野県,長野県松本市深志2-6-1,27,400,600,500,36.23096888,137.9707258,2026-06-30T09:04:43.349Z,https://parking.npc-npc.co.jp/p/20/925
NPC,NPC24H松本大手3丁目パーキング,長野県,長野県松本市大手3丁目7-10付近,10,450,800,400,36.23707527,137.96818072,2026-06-30T09:04:43.349Z,https://parking.npc-npc.co.jp/p/20/925
NPC,NPC24H松本中央2丁目パーキング,長野県,長野県松本市中央2-8,38,300,900,,36.23125053,137.97100152,2026-06-30T09:04:43.349Z,https://parking.npc-npc.co.jp/p/20/925
NPC,NPC24H熊本若葉1丁目パーキング,熊本県,熊本県熊本市東区若葉1-46-12,15,220,400,,32.77571258,130.76235797,2026-06-30T09:04:43.349Z,https://parking.npc-npc.co.jp/p/43/1786
NPC,NPC24H水前寺1丁目パーキング,熊本県,熊本県熊本市中央区水前寺1-12-11,0,220,600,,32.79395273,130.7292727,2026-06-30T09:04:43.349Z,https://parking.npc-npc.co.jp/p/43/1785
NPC,NPC24H熊本県営駐車場,熊本県,熊本県熊本市中央区安政町3-9,282,100,,600,32.80154604,130.7123111,2026-06-30T09:04:43.349Z,https://parking.npc-npc.co.jp/p/43/1785
NPC,NPC24H九品寺2丁目パーキング,熊本県,熊本県熊本市中央区九品寺2丁目8‐34,30,220,800,,32.79718369,130.7154687,2026-06-30T09:04:43.349Z,https://parking.npc-npc.co.jp/p/43/1785
NPC,NPC24H熊本市役所前パーキング,熊本県,熊本県熊本市中央区下通1丁目1番地外,111,450,1800,1000,32.80292484,130.7085683,2026-06-30T09:04:43.349Z,https://parking.npc-npc.co.jp/p/43/1785
NPC,NPC24H熊本下通パーキング,熊本県,熊本県熊本市中央区下通2-9-1,272,200,,,32.79796667,130.708994,2026-06-30T09:04:43.349Z,https://parking.npc-npc.co.jp/p/43/1785
NPC,NPC24H熊本新町1丁目パーキング,熊本県,熊本県熊本市中央区新町1-6-27,11,220,,,32.80474224,130.69758893,2026-06-30T09:04:43.349Z,https://parking.npc-npc.co.jp/p/43/1785
NPC,NPC24HMRRくまもとパーキング,熊本県,熊本県熊本市中央区南熊本1-9-25,201,200,600,400,32.79092007,130.7111825,2026-06-30T09:04:43.349Z,https://parking.npc-npc.co.jp/p/43/1785
NPC,NPC24H佐賀愛敬町パーキング,佐賀県,佐賀県佐賀市愛敬町10-18,37,110,700,,33.26134446,130.3001447,2026-06-30T09:04:43.349Z,https://parking.npc-npc.co.jp/p/41/1741
NPC,NPC24H田崎2丁目パーキング,熊本県,熊本県熊本市西区田崎2-3-23付近,76,200,600,,32.78386649,130.6819606,2026-06-30T09:04:43.349Z,https://parking.npc-npc.co.jp/p/43/1787
NPC,NPC24H新静岡駅前パーキング,静岡県,静岡県静岡市葵区鷹匠1丁目2-2,16,400,,,34.97605317,138.38649313,2026-06-30T09:04:43.349Z,https://parking.npc-npc.co.jp/p/22/1046
NPC,NPC24H静岡南町第2パーキング,静岡県,静岡県静岡市駿河区南町2-21,20,300,1200,600,34.9692956,138.3879287,2026-06-30T09:04:43.349Z,https://parking.npc-npc.co.jp/p/22/1047
NPC,NPC24H静岡南町第3パーキング,静岡県,静岡県静岡市駿河区南町6-5,21,300,1300,500,34.97010392,138.3892458,2026-06-30T09:04:43.349Z,https://parking.npc-npc.co.jp/p/22/1047
NPC,NPC24H静岡南町パーキング,静岡県,静岡県静岡市駿河区南町12-22／12-23,40,400,1200,500,34.9697123,138.3911261,2026-06-30T09:04:43.349Z,https://parking.npc-npc.co.jp/p/22/1047
NPC,NPC24H静岡南町第4パーキング,静岡県,静岡県静岡市駿河区南町19-1,202,400,1000,,34.97057483,138.3911619,2026-06-30T09:04:43.349Z,https://parking.npc-npc.co.jp/p/22/1047
NPC,NPC24H八十二長野銀行屋代支店パーキング,長野県,長野県千曲市桜堂521-12,16,,,800,36.53185698,138.12576015,2026-06-30T09:04:43.349Z,https://parking.npc-npc.co.jp/p/20/940
NPC,NPC24H篠ノ井駅前第2パーキング,長野県,長野県長野市篠ノ井内堀852-3,24,300,700,,36.57717781,138.14048106,2026-06-30T09:04:43.349Z,https://parking.npc-npc.co.jp/p/20/924
NPC,NPC24H上田中央2丁目パーキング,長野県,長野県上田市中央2-13-29,9,267,800,,36.39872109,138.2531026,2026-06-30T09:04:43.349Z,https://parking.npc-npc.co.jp/p/20/926
NPC,NPC24H上田中央1丁目パーキング,長野県,長野県上田市中央1-7,6,300,800,,36.39848911,138.25328349,2026-06-30T09:04:43.349Z,https://parking.npc-npc.co.jp/p/20/926
NPC,NPC24H長野中御所4丁目パーキング,長野県,長野県長野市中御所4丁目728番4,12,200,400,300,36.63580131,138.18279761,2026-06-30T09:04:43.349Z,https://parking.npc-npc.co.jp/p/20/924
NPC,NPC24H長野県庁前第2パーキング,長野県,長野県長野市中御所岡田町96,62,200,300,,36.64888408,138.1803254,2026-06-30T09:04:43.349Z,https://parking.npc-npc.co.jp/p/20/924
NPC,NPC24H長野中御所第2パーキング,長野県,長野県長野市中御所中御所1-225-3,21,267,1000,,36.64370844,138.1840386,2026-06-30T09:04:43.349Z,https://parking.npc-npc.co.jp/p/20/924
NPC,NPC24H長野県庁前第3パーキング,長野県,長野県長野市中御所岡田町38,124,200,800,,36.64868364,138.1818273,2026-06-30T09:04:43.349Z,https://parking.npc-npc.co.jp/p/20/924
NPC,NPC24H長野県庁通パーキング,長野県,長野県長野市中御所岡田町42,13,300,,,36.64807675,138.1822373,2026-06-30T09:04:43.349Z,https://parking.npc-npc.co.jp/p/20/924
NPC,NPC24H長野駅東口第12パーキング,長野県,長野県長野市栗田254-2,30,300,800,,36.64019736,138.1868413,2026-06-30T09:04:43.349Z,https://parking.npc-npc.co.jp/p/20/924
NPC,NPC24H長野駅東口第21パーキング,長野県,長野県長野市栗田1582,40,300,600,,36.63941509,138.18788936,2026-06-30T09:04:43.349Z,https://parking.npc-npc.co.jp/p/20/924
NPC,NPC24H長野北石堂町第2パーキング,長野県,長野県長野市北石堂町1206-2,12,400,1700,800,36.64720639,138.1850228,2026-06-30T09:04:43.349Z,https://parking.npc-npc.co.jp/p/20/924
NPC,NPC24H長野駅東口第15パーキング,長野県,長野県長野市栗田280-11,10,400,,,36.64154487,138.1884078,2026-06-30T09:04:43.349Z,https://parking.npc-npc.co.jp/p/20/924
NPC,NPC24H長野駅東口第18パーキング,長野県,長野県長野市栗田373,9,400,1100,,36.64103697,138.1889072,2026-06-30T09:04:43.349Z,https://parking.npc-npc.co.jp/p/20/924
NPC,NPC24H長野駅東口第19パーキング,長野県,長野県長野市栗田1615,22,400,800,,36.64017998,138.18948621,2026-06-30T09:04:43.349Z,https://parking.npc-npc.co.jp/p/20/924
NPC,NPC24H八十二長野銀行長野支店パーキング,長野県,長野県長野市新田町1126-1,21,,,500,36.64932381,138.18620813,2026-06-30T09:04:43.349Z,https://parking.npc-npc.co.jp/p/20/924
NPC,NPC24H長野信州大学前パーキング,長野県,長野県長野市西長野5,12,300,700,400,36.65634801,138.18227189,2026-06-30T09:04:43.349Z,https://parking.npc-npc.co.jp/p/20/924
NPC,NPC24H長野駅東口第22パーキング,長野県,長野県長野市栗田1871,23,200,500,,36.63969003,138.19222666,2026-06-30T09:04:43.349Z,https://parking.npc-npc.co.jp/p/20/924
NPC,NPC24H長野駅前パーキング,長野県,長野県長野市南千歳1-20-4,4,600,2000,1000,36.64447781,138.1895765,2026-06-30T09:04:43.349Z,https://parking.npc-npc.co.jp/p/20/924
NPC,NPC24H長野信州大学前第2パーキング,長野県,長野県長野市西長野2-4,10,300,700,400,36.65631574,138.18317579,2026-06-30T09:04:43.349Z,https://parking.npc-npc.co.jp/p/20/924
NPC,NPC24H長野駅東口第16パーキング,長野県,長野県長野市七瀬4-1,27,400,1000,,36.64228066,138.191519,2026-06-30T09:04:43.349Z,https://parking.npc-npc.co.jp/p/20/924
NPC,NPC24H長野諏訪町パーキング,長野県,長野県長野市諏訪町518,33,300,650,300,36.65364571,138.185425,2026-06-30T09:04:43.349Z,https://parking.npc-npc.co.jp/p/20/924
NPC,NPC24H長野諏訪町第2パーキング,長野県,長野県長野市諏訪町518,13,300,600,,36.65364571,138.185425,2026-06-30T09:04:43.349Z,https://parking.npc-npc.co.jp/p/20/924
NPC,NPC24H長野駅東口第20パーキング,長野県,長野県長野市栗田958-11,33,267,600,,36.64049013,138.19368737,2026-06-30T09:04:43.349Z,https://parking.npc-npc.co.jp/p/20/924
NPC,NPC24H長野南千歳1丁目パーキング,長野県,長野県長野市南千歳1-14,30,300,900,,36.64596577,138.19111776,2026-06-30T09:04:43.349Z,https://parking.npc-npc.co.jp/p/20/924
NPC,NPC24H長野駅東口第13パーキング,長野県,長野県長野市栗田948,31,200,700,,36.64212786,138.1933054,2026-06-30T09:04:43.349Z,https://parking.npc-npc.co.jp/p/20/924
NPC,NPC24H長野鶴賀権堂町第3パーキング,長野県,長野県長野市大字鶴賀権堂町2304-4,12,200,,500,36.65271577,138.187867,2026-06-30T09:04:43.349Z,https://parking.npc-npc.co.jp/p/20/924
NPC,NPC24H長野駅東口第11パーキング,長野県,長野県長野市七瀬13-1,25,200,600,,36.64222901,138.1945982,2026-06-30T09:04:43.349Z,https://parking.npc-npc.co.jp/p/20/924
NPC,NPC24H長野鶴賀権堂町パーキング,長野県,長野県長野市鶴賀権堂町2270,36,267,,,36.65261744,138.1887766,2026-06-30T09:04:43.349Z,https://parking.npc-npc.co.jp/p/20/924
NPC,NPC24H長野大門町パーキング,長野県,長野県長野市大門町533,27,300,600,,36.65525318,138.18729236,2026-06-30T09:04:43.349Z,https://parking.npc-npc.co.jp/p/20/924
NPC,NPC24H長野駅東口第10パーキング,長野県,長野県長野市七瀬28-10,12,200,500,,36.64479863,138.1935521,2026-06-30T09:04:43.349Z,https://parking.npc-npc.co.jp/p/20/924
NPC,NPC24H長野駅東口第17パーキング,長野県,長野県長野市七瀬13番4,14,267,500,,36.64215794,138.1951432,2026-06-30T09:04:43.349Z,https://parking.npc-npc.co.jp/p/20/924
NPC,NPC24H長野駅東口第5パーキング,長野県,長野県長野市鶴賀七瀬688,18,200,600,,36.64510787,138.1935512,2026-06-30T09:04:43.349Z,https://parking.npc-npc.co.jp/p/20/924
NPC,NPC24H長野駅東口第14パーキング,長野県,長野県長野市鶴賀七瀬682,15,200,500,,36.64441556,138.194051,2026-06-30T09:04:43.349Z,https://parking.npc-npc.co.jp/p/20/924
NPC,NPC24H長野鶴賀権堂町第2パーキング,長野県,長野県長野市鶴賀権堂町2366,20,200,700,,36.65389328,138.1888569,2026-06-30T09:04:43.349Z,https://parking.npc-npc.co.jp/p/20/924
NPC,NPC24H長野鶴賀緑町第2パーキング,長野県,長野県長野市鶴賀緑町1602,20,,600,,36.6491802,138.1928747,2026-06-30T09:04:43.349Z,https://parking.npc-npc.co.jp/p/20/924
NPC,NPC24H長野鶴賀緑町パーキング,長野県,長野県長野市鶴賀緑町2210,14,200,700,,36.65171377,138.1925057,2026-06-30T09:04:43.349Z,https://parking.npc-npc.co.jp/p/20/924
NPC,NPC24H善光寺西パーキング,長野県,長野県長野市横沢町717番地,15,200,400,300,36.66265132,138.18621638,2026-06-30T09:04:43.349Z,https://parking.npc-npc.co.jp/p/20/924
NPC,NPC24H長野西鶴賀パーキング,長野県,長野県長野市鶴賀西鶴賀町1491-15,20,267,600,,36.65326794,138.1940507,2026-06-30T09:04:43.349Z,https://parking.npc-npc.co.jp/p/20/924
NPC,NPC24H甲府相生パーキング,山梨県,山梨県甲府市相生1-3,12,200,600,300,35.65885393,138.564712,2026-06-30T09:04:43.349Z,https://parking.npc-npc.co.jp/p/19/896
NPC,NPC24H甲府駅北口パーキング,山梨県,山梨県甲府市北口2-10,11,400,,,35.66886553,138.5695845,2026-06-30T09:04:43.349Z,https://parking.npc-npc.co.jp/p/19/896
NPC,NPC24Hイーラdeパーキング,静岡県,静岡県沼津市大手町1-1-6,265,300,800,,35.10225667,138.8589145,2026-06-30T09:04:43.349Z,https://parking.npc-npc.co.jp/p/22/1053
NPC,NPC24H上越妙高駅高架下パーキング,新潟県,新潟県上越市大和2丁目76-2,74,300,1200,,37.08114987,138.249016,2026-06-30T09:04:43.349Z,https://parking.npc-npc.co.jp/p/15/825
NPC,NPC24H上越妙高駅前第2パーキング,新潟県,新潟県上越市大和2丁目1-84,39,200,400,,37.08086089,138.24954258,2026-06-30T09:04:43.349Z,https://parking.npc-npc.co.jp/p/15/825
NPC,NPC24H三島駅南口パーキング,静岡県,静岡県三島市一番町4-20,55,400,,,35.12488122,138.91422429,2026-06-30T09:04:43.349Z,https://parking.npc-npc.co.jp/p/22/1055
NPC,NPC24H高田駅前パーキング,新潟県,新潟県上越市仲町4-1,31,200,800,,37.11458946,138.24248029,2026-06-30T09:04:43.349Z,https://parking.npc-npc.co.jp/p/15/825
NPC,NPC24Hあすとぴあ高田,新潟県,新潟県上越市本町5-4-5,81,200,,,37.11459429,138.2443735,2026-06-30T09:04:43.349Z,https://parking.npc-npc.co.jp/p/15/825
NPC,NPC24Hうみらいずパーキング,新潟県,新潟県上越市西本町1丁目113番2,137,200,800,500,37.17108225,138.241774,2026-06-30T09:04:43.349Z,https://parking.npc-npc.co.jp/p/15/825
NPC,NPC24H長崎元船町パーキング,長崎県,長崎県長崎市元船町1-11,15,330,,500,32.75002197,129.8711084,2026-06-30T09:04:43.349Z,https://parking.npc-npc.co.jp/p/42/1762
NPC,NPC24H大波止パーキング,長崎県,長崎県長崎市元船町10-5,174,300,900,,32.74676026,129.87044936,2026-06-30T09:04:43.349Z,https://parking.npc-npc.co.jp/p/42/1762
NPC,NPC24Hセンクラ出島第2パーキング,長崎県,長崎県長崎市出島町14-14,33,300,,300,32.74196207,129.87407241,2026-06-30T09:04:43.349Z,https://parking.npc-npc.co.jp/p/42/1762
NPC,NPC24Hセンクラ出島パーキング,長崎県,長崎県長崎市出島町14-12,215,400,900,,32.74202438,129.87363504,2026-06-30T09:04:43.349Z,https://parking.npc-npc.co.jp/p/42/1762
NPC,NPC24H強羅駅前パーキング,神奈川県,神奈川県足柄下郡箱根町強羅字強羅1300,15,440,1200,,35.25023166,139.0488883,2026-06-30T09:04:43.349Z,https://parking.npc-npc.co.jp/p/14/797
NPC,NPC24H蛍田駅前（大縄下）パーキング,神奈川県,神奈川県小田原市蓮正寺316,13,440,1000,,35.28507785,139.1524059,2026-06-30T09:04:43.349Z,https://parking.npc-npc.co.jp/p/14/776
NPC,NPC24H小田原駅東口パーキング,神奈川県,神奈川県小田原市栄町2-3-6,9,1100,,,35.25679619,139.1570669,2026-06-30T09:04:43.349Z,https://parking.npc-npc.co.jp/p/14/776
NPC,NPC24H関野ビルⅠ立体駐車場,神奈川県,神奈川県秦野市松原町3-3,280,300,,,35.37621502,139.185292,2026-06-30T09:04:43.349Z,https://parking.npc-npc.co.jp/p/14/780
NPC,NPC24H西武秩父パーキング,埼玉県,埼玉県秩父市東町29-23,53,100,600,,35.99221064,139.0817517,2026-06-30T09:04:43.349Z,https://parking.npc-npc.co.jp/p/11/558
NPC,NPC24H渋沢駅前第1駐車場,神奈川県,神奈川県秦野市松原町3-20,49,300,800,,35.376823,139.1854985,2026-06-30T09:04:43.349Z,https://parking.npc-npc.co.jp/p/14/780
NPC,NPC24H渋沢駅前第2駐車場,神奈川県,神奈川県秦野市松原町2-45,17,300,800,,35.3768055,139.1856702,2026-06-30T09:04:43.349Z,https://parking.npc-npc.co.jp/p/14/780
NPC,NPC24H高崎田町パーキング,群馬県,群馬県高崎市田町6-1,55,200,1000,,36.32879022,139.0063174,2026-06-30T09:04:43.349Z,https://parking.npc-npc.co.jp/p/10/508
NPC,NPC24H高崎田町第3パーキング,群馬県,群馬県高崎市田町93-2,37,440,400,400,36.32733476,139.00685756,2026-06-30T09:04:43.349Z,https://parking.npc-npc.co.jp/p/10/508
NPC,NPC24H高崎東町パーキング,群馬県,群馬県高崎市東町68-5の隣,9,440,900,400,36.3254655,139.0147169,2026-06-30T09:04:43.349Z,https://parking.npc-npc.co.jp/p/10/508
NPC,NPC24H高崎線新町第3パーキング,群馬県,群馬県高崎市新町2085,31,220,500,,36.27245597,139.1055462,2026-06-30T09:04:43.349Z,https://parking.npc-npc.co.jp/p/10/508
NPC,CoCoLo湯沢,新潟県,新潟県南魚沼郡湯沢町湯沢2427-1,76,,2500,,36.93497091,138.8104104,2026-06-30T09:04:43.349Z,https://parking.npc-npc.co.jp/p/15/836
NPC,NPC24H青梅駅前パーキング,東京都,東京都青梅市本町130,67,330,700,300,35.78917295,139.25865126,2026-06-30T09:04:43.349Z,https://parking.npc-npc.co.jp/p/13/705
NPC,NPC24H柏崎駅南口パーキング,新潟県,新潟県柏崎市幸町8,21,200,400,,37.36276805,138.5565151,2026-06-30T09:04:43.349Z,https://parking.npc-npc.co.jp/p/15/814
NPC,NPC24H第四北越銀行柏崎支店駐車場,新潟県,新潟県柏崎市駅前2-3-4,31,,500,,37.36689328,138.5543728,2026-06-30T09:04:43.349Z,https://parking.npc-npc.co.jp/p/15/814
NPC,NPC24Hりそな銀行東青梅支店第1パーキング,東京都,東京都青梅市東青梅2-17-4,23,200,,200,35.789749,139.275495,2026-06-30T09:04:43.349Z,https://parking.npc-npc.co.jp/p/13/705
NPC,NPC24Hりそな銀行東青梅支店第2パーキング,東京都,東京都青梅市東青梅2-17-4,15,200,,200,35.78976532,139.2754925,2026-06-30T09:04:43.349Z,https://parking.npc-npc.co.jp/p/13/705
NPC,NPC24H平塚駅前パーキング,神奈川県,神奈川県平塚市紅谷町7,5,990,,,35.32767116,139.3479599,2026-06-30T09:04:43.349Z,https://parking.npc-npc.co.jp/p/14/773
NPC,NPC24H西橋本2丁目第2パーキング,神奈川県,神奈川県相模原市緑区西橋本2丁目10-7,11,660,800,300,35.59508485,139.33528104,2026-06-30T09:04:43.349Z,https://parking.npc-npc.co.jp/p/14/769
NPC,NPC24H西橋本2丁目パーキング,神奈川県,神奈川県相模原市緑区西橋本2-14,30,330,800,300,35.59366086,139.3361864,2026-06-30T09:04:43.349Z,https://parking.npc-npc.co.jp/p/14/769
NPC,NPC24H横山町第4パーキング,東京都,東京都八王子市横山町20-19付近,3,400,,800,35.660351,139.336955,2026-06-30T09:04:43.349Z,https://parking.npc-npc.co.jp/p/13/701
NPC,NPC24H橋本駅北口パーキング,神奈川県,神奈川県相模原市緑区橋本3-27,41,600,1400,700,35.59558557,139.3467207,2026-06-30T09:04:43.349Z,https://parking.npc-npc.co.jp/p/14/769
NPC,NPC24H八王子第7パーキング,東京都,東京都八王子市東町10-5,22,880,,,35.65870351,139.3385501,2026-06-30T09:04:43.349Z,https://parking.npc-npc.co.jp/p/13/701
NPC,NPC24H横山町第3パーキング,東京都,東京都八王子市横山町23,4,660,1300,400,35.66028868,139.3384939,2026-06-30T09:04:43.349Z,https://parking.npc-npc.co.jp/p/13/701
NPC,NPC24H横山町パーキング,東京都,東京都八王子市横山町23-1,4,528,1400,800,35.66009582,139.3389364,2026-06-30T09:04:43.349Z,https://parking.npc-npc.co.jp/p/13/701
NPC,NPC24H横山町第2パーキング,東京都,東京都八王子市横山町23-14,5,440,1400,700,35.66037694,139.3389579,2026-06-30T09:04:43.349Z,https://parking.npc-npc.co.jp/p/13/701
NPC,NPC24Hヨドバシカメラ八王子店,東京都,東京都八王子市東町6-18-1,25,600,1700,,35.65821858,139.3400149,2026-06-30T09:04:43.349Z,https://parking.npc-npc.co.jp/p/13/701
NPC,NPC24H八王子第10パーキング,東京都,東京都八王子市東町4-3-1,11,800,,,35.65821859,139.3405997,2026-06-30T09:04:43.349Z,https://parking.npc-npc.co.jp/p/13/701
NPC,NPC24H南橋本パーキング,神奈川県,神奈川県相模原市中央区南橋本1-2,14,330,700,,35.58220459,139.3527912,2026-06-30T09:04:43.349Z,https://parking.npc-npc.co.jp/p/14/770
NPC,NPC24H京王北野パーキング,東京都,東京都八王子市北野町547-11,6,440,,500,35.64626933,139.3543173,2026-06-30T09:04:43.349Z,https://parking.npc-npc.co.jp/p/13/701
NPC,NPC24H京王北野第2パーキング,東京都,東京都八王子市打越町623-5,7,330,1000,300,35.64333097,139.3575668,2026-06-30T09:04:43.349Z,https://parking.npc-npc.co.jp/p/13/701
NPC,NPC24H相模原パーキング,神奈川県,神奈川県相模原市中央区相模原3-8,21,600,,,35.5793665,139.3703529,2026-06-30T09:04:43.349Z,https://parking.npc-npc.co.jp/p/14/770
NPC,NPC24H伊勢崎駅前パーキング,群馬県,群馬県伊勢崎市喜多町94-1付近,38,,250,,36.32757946,139.1937435,2026-06-30T09:04:43.349Z,https://parking.npc-npc.co.jp/p/10/510
NPC,NPC24H京王長沼駅前パーキング,東京都,東京都八王子市長沼町675-1,28,330,700,300,35.64238774,139.3667342,2026-06-30T09:04:43.349Z,https://parking.npc-npc.co.jp/p/13/701
NPC,NPC24H南大沢駅前パーキング,東京都,東京都八王子市南大沢4-2-1,351,300,600,,35.61263439,139.3761519,2026-06-30T09:04:43.349Z,https://parking.npc-npc.co.jp/p/13/701
NPC,NPC24H湘南信金高田支店パーキング,神奈川県,神奈川県茅ヶ崎市鶴が台1-2,6,800,400,300,35.34587311,139.4127109,2026-06-30T09:04:43.349Z,https://parking.npc-npc.co.jp/p/14/777
NPC,NPC24H相武台駅前パーキング,神奈川県,神奈川県座間市相武台1-38-18,187,200,700,500,35.49800725,139.4066161,2026-06-30T09:04:43.349Z,https://parking.npc-npc.co.jp/p/14/785
NPC,NPC24H南平パーキング,東京都,東京都日野市南平7-3-8,8,330,600,300,35.6549562,139.3944708,2026-06-30T09:04:43.349Z,https://parking.npc-npc.co.jp/p/13/712
NPC,NPC24Hさがみ野駅前パーキング,神奈川県,神奈川県海老名市東柏ヶ谷2-25-38,22,220,700,300,35.47029285,139.4288852,2026-06-30T09:04:43.349Z,https://parking.npc-npc.co.jp/p/14/784
NPC,NPC24H minanoba相模原駐車場,神奈川県,神奈川県相模原市南区南台3-1-30,145,,,300,35.5208668,139.42426453,2026-06-30T09:04:43.349Z,https://parking.npc-npc.co.jp/p/14/771
NPC,NPC24H鶴牧2丁目パーキング,東京都,東京都多摩市鶴牧2-24-8,15,440,900,300,35.61626121,139.41275942,2026-06-30T09:04:43.349Z,https://parking.npc-npc.co.jp/p/13/722
NPC,NPC24H辻堂西口パーキング,神奈川県,神奈川県茅ヶ崎市浜竹3-3,12,600,1700,600,35.33626439,139.4428074,2026-06-30T09:04:43.349Z,https://parking.npc-npc.co.jp/p/14/777
NPC,NPC24H相模原相南パーキング,神奈川県,神奈川県相模原市南区相南4-15-12,18,330,900,500,35.51193097,139.4288288,2026-06-30T09:04:43.349Z,https://parking.npc-npc.co.jp/p/14/771
NPC,NPC24H藤沢市遠藤パーキング,神奈川県,神奈川県藤沢市遠藤2020-11,24,400,800,400,35.37683174,139.4449218,2026-06-30T09:04:43.349Z,https://parking.npc-npc.co.jp/p/14/775
NPC,Luz湘南辻堂駐車場,神奈川県,神奈川県藤沢市辻堂神台1-2-12,103,300,,,35.33854238,139.4481913,2026-06-30T09:04:43.349Z,https://parking.npc-npc.co.jp/p/14/775
NPC,NPC24H東林間パーキング,神奈川県,神奈川県相模原市南区東林間5-12-13,14,400,900,400,35.51990868,139.4372184,2026-06-30T09:04:43.349Z,https://parking.npc-npc.co.jp/p/14/771
NPC,NPC24H立川南口第1パーキング,東京都,東京都立川市柴崎町3-6,17,1500,2200,,35.69598429,139.4135835,2026-06-30T09:04:43.349Z,https://parking.npc-npc.co.jp/p/13/702
NPC,NPC24H相模大野駅前第3パーキング,神奈川県,神奈川県相模原市南区相模大野3-15,5,660,,,35.53295344,139.4363507,2026-06-30T09:04:43.349Z,https://parking.npc-npc.co.jp/p/14/771
NPC,NPC24H立川緑町第2パーキング,東京都,東京都立川市緑町4-1,327,400,1400,,35.70354773,139.4143343,2026-06-30T09:04:43.349Z,https://parking.npc-npc.co.jp/p/13/702
NPC,NPC24H立川錦町第3パーキング,東京都,東京都立川市錦町2-1,4,990,1800,,35.69591736,139.41557,2026-06-30T09:04:43.349Z,https://parking.npc-npc.co.jp/p/13/702
NPC,NPC24H立川北口パーキング,東京都,東京都立川市曙町2-14,221,400,1200,,35.6999162,139.4159323,2026-06-30T09:04:43.349Z,https://parking.npc-npc.co.jp/p/13/702
NPC,NPC24H多摩市乞田パーキング,東京都,東京都多摩市乞田839,18,220,450,300,35.6312514,139.43408118,2026-06-30T09:04:43.349Z,https://parking.npc-npc.co.jp/p/13/722
NPC,NPC24H町田駅前パーキング,東京都,東京都町田市中町1-2-1,26,600,2300,,35.54599264,139.4458127,2026-06-30T09:04:43.349Z,https://parking.npc-npc.co.jp/p/13/709
NPC,NPC24H町田中町第3パーキング,東京都,東京都町田市中町1-14-4,5,400,,400,35.54755368,139.4456933,2026-06-30T09:04:43.349Z,https://parking.npc-npc.co.jp/p/13/709
NPC,NPC24H鶴間パーキング,神奈川県,神奈川県大和市鶴間2-11-7,22,300,600,400,35.49068616,139.4527192,2026-06-30T09:04:43.349Z,https://parking.npc-npc.co.jp/p/14/782
NPC,NPC24H町田中町パーキング,東京都,東京都町田市中町1-21-4,37,440,1200,300,35.54906543,139.4465401,2026-06-30T09:04:43.349Z,https://parking.npc-npc.co.jp/p/13/709
NPC,NPC24H鶴間第2パーキング,神奈川県,神奈川県大和市鶴間1-31-1,7,300,1200,300,35.49048986,139.4537197,2026-06-30T09:04:43.349Z,https://parking.npc-npc.co.jp/p/14/782
NPC,NPC24H狭山ヶ丘パーキング,埼玉県,埼玉県所沢市和ケ原1-164-1,28,200,600,,35.80683866,139.4095668,2026-06-30T09:04:43.349Z,https://parking.npc-npc.co.jp/p/11/559
NPC,薬師池公園西駐車場,東京都,東京都町田市本町田3108-1,127,,800,,35.57455606,139.4466251,2026-06-30T09:04:43.349Z,https://parking.npc-npc.co.jp/p/13/709
NPC,NPC24H湘南台駅前パーキング,神奈川県,神奈川県藤沢市湘南台2-14,219,440,900,500,35.39539344,139.46648551,2026-06-30T09:04:43.349Z,https://parking.npc-npc.co.jp/p/14/775
NPC,NPC24H武蔵藤沢駅前パーキング,埼玉県,埼玉県入間市下藤沢408-3付近,45,200,500,,35.82152169,139.4094522,2026-06-30T09:04:43.349Z,https://parking.npc-npc.co.jp/p/11/574
NPC,NPC24H IKOZA第1駐車場,神奈川県,神奈川県大和市渋谷5-22,103,200,,,35.43307366,139.4638409,2026-06-30T09:04:43.349Z,https://parking.npc-npc.co.jp/p/14/782
NPC,NPC24H IKOZA第3駐車場,神奈川県,神奈川県大和市渋谷5-20,39,200,600,,35.4336794,139.4640322,2026-06-30T09:04:43.349Z,https://parking.npc-npc.co.jp/p/14/782
NPC,NPC24H IKOZA第2駐車場,神奈川県,神奈川県大和市渋谷5-21,20,200,,,35.4335569,139.4641603,2026-06-30T09:04:43.349Z,https://parking.npc-npc.co.jp/p/14/782
NPC,薬師池公園北駐車場,東京都,東京都町田市野津田町,130,,800,,35.58260576,139.4485724,2026-06-30T09:04:43.349Z,https://parking.npc-npc.co.jp/p/13/709
NPC,薬師池公園東第2駐車場,東京都,東京都町田市金井町733,26,,800,,35.57859192,139.4498062,2026-06-30T09:04:43.349Z,https://parking.npc-npc.co.jp/p/13/709
NPC,薬師池公園東第1駐車場,東京都,東京都町田市薬師台2丁目2,152,,800,,35.57906312,139.4503748,2026-06-30T09:04:43.349Z,https://parking.npc-npc.co.jp/p/13/709
NPC,NPC24Hりそな銀行東大和支店パーキング,東京都,東京都東大和市中央3-853-2,16,300,,400,35.744712,139.428575,2026-06-30T09:04:43.349Z,https://parking.npc-npc.co.jp/p/13/718
NPC,NPC24Hレッドロブスター江ノ島店パーキング,神奈川県,神奈川県藤沢市片瀬海岸3-22-19,25,400,,,35.31142554,139.4789378,2026-06-30T09:04:43.349Z,https://parking.npc-npc.co.jp/p/14/775
NPC,NPC24H聖蹟桜ヶ丘パーキング,東京都,東京都多摩市関戸1-1,21,600,,,35.65094031,139.4457212,2026-06-30T09:04:43.349Z,https://parking.npc-npc.co.jp/p/13/722
NPC,NPC24H江ノ島第2パーキング,神奈川県,神奈川県藤沢市片瀬海岸2-17,7,400,,,35.30845738,139.4820749,2026-06-30T09:04:43.349Z,https://parking.npc-npc.co.jp/p/14/775
NPC,NPC24H鵠沼桜が岡パーキング,神奈川県,神奈川県藤沢市鵠沼桜が岡1-7-25,5,528,900,400,35.33031432,139.4839526,2026-06-30T09:04:43.349Z,https://parking.npc-npc.co.jp/p/14/775
NPC,NPC24H坂戸駅南口第2パーキング,埼玉県,埼玉県坂戸市南町15-3,11,220,700,,35.95679217,139.3950415,2026-06-30T09:04:43.349Z,https://parking.npc-npc.co.jp/p/11/586
NPC,NPC24H坂戸駅前会館パーキング,埼玉県,埼玉県坂戸市日の出町31-13,9,220,600,300,35.9584337,139.39485548,2026-06-30T09:04:43.349Z,https://parking.npc-npc.co.jp/p/11/586
NPC,NPC24H坂戸駅南口パーキング,埼玉県,埼玉県坂戸市南町17-8付近,29,330,700,,35.95600882,139.3962105,2026-06-30T09:04:43.349Z,https://parking.npc-npc.co.jp/p/11/586
NPC,ゆめが丘ソラトス　立体駐車場2,神奈川県,神奈川県横浜市泉区ゆめが丘31,316,500,,,35.40445939,139.4817056,2026-06-30T09:04:43.349Z,https://parking.npc-npc.co.jp/p/14/757
NPC,NPC24H森林公園駅前パーキング,埼玉県,埼玉県比企郡滑川町羽尾3743-7,107,110,400,,36.04523314,139.3762896,2026-06-30T09:04:43.349Z,https://parking.npc-npc.co.jp/p/11/597
NPC,下飯田駅前駐車場,神奈川県,神奈川県横浜市泉区下飯田町835-1,61,500,700,,35.40387025,139.48337931,2026-06-30T09:04:43.349Z,https://parking.npc-npc.co.jp/p/14/757
NPC,ゆめが丘ソラトス　立体駐車場1,神奈川県,神奈川県横浜市泉区ゆめが丘31,984,500,,,35.40608366,139.4832831,2026-06-30T09:04:43.349Z,https://parking.npc-npc.co.jp/p/14/757
NPC,ゆめが丘ソラトス　平面駐車場1,神奈川県,神奈川県横浜市泉区和泉町,162,500,,,35.40581046,139.48441808,2026-06-30T09:04:43.349Z,https://parking.npc-npc.co.jp/p/14/757
NPC,ゆめが丘ソラトス　平面駐車場2,神奈川県,神奈川県横浜市泉区和泉町,88,500,,,35.40435227,139.48471235,2026-06-30T09:04:43.349Z,https://parking.npc-npc.co.jp/p/14/757
NPC,NPC24H南藤沢パーキング,神奈川県,神奈川県藤沢市南藤沢8-17,8,400,2000,600,35.33749969,139.4909341,2026-06-30T09:04:43.349Z,https://parking.npc-npc.co.jp/p/14/775
NPC,NPC24H若葉駅西口パーキング,埼玉県,埼玉県坂戸市関間4-12,377,200,500,,35.94928238,139.4078772,2026-06-30T09:04:43.349Z,https://parking.npc-npc.co.jp/p/11/586
NPC,NPC24H狭山中央パーキング,埼玉県,埼玉県狭山市中央2-26-23,46,200,800,,35.85693443,139.4286192,2026-06-30T09:04:43.349Z,https://parking.npc-npc.co.jp/p/11/565
NPC,NPC24Hつくし野2丁目パーキング,東京都,東京都町田市つくし野2丁目31,6,250,800,400,35.52433465,139.4832398,2026-06-30T09:04:43.349Z,https://parking.npc-npc.co.jp/p/13/709
NPC,NPC24H分倍河原駅前パーキング,東京都,東京都府中市片町2-20-4,15,600,1100,600,35.66954995,139.4690833,2026-06-30T09:04:43.349Z,https://parking.npc-npc.co.jp/p/13/706
NPC,NPC24H瀬谷区役所前パーキング,神奈川県,神奈川県横浜市瀬谷区二ツ橋町200,31,330,800,400,35.46666013,139.4985474,2026-06-30T09:04:43.349Z,https://parking.npc-npc.co.jp/p/14/755
NPC,NPC24H鶴ヶ島駅東口パーキング,埼玉県,埼玉県川越市天沼新田195-7,9,200,700,400,35.9362435,139.4249414,2026-06-30T09:04:43.349Z,https://parking.npc-npc.co.jp/p/11/554
NPC,NPC24H東松山ぼたん通り駐車場,埼玉県,埼玉県東松山市箭弓町1-12-7,139,200,600,,36.03599136,139.4015654,2026-06-30T09:04:43.349Z,https://parking.npc-npc.co.jp/p/11/563
NPC,NPC24H東松山駅前第3パーキング,埼玉県,埼玉県東松山市箭弓町1-17-18,12,200,800,,36.03423643,139.4025621,2026-06-30T09:04:43.349Z,https://parking.npc-npc.co.jp/p/11/563
NPC,NPC24H東松山駅前パーキング,埼玉県,埼玉県東松山市箭弓町1-20,75,220,600,,36.0334893,139.4027928,2026-06-30T09:04:43.349Z,https://parking.npc-npc.co.jp/p/11/563
NPC,NPC24H三ツ境パーキング,神奈川県,神奈川県横浜市瀬谷区三ツ境15-14,15,400,1100,400,35.46700581,139.5027969,2026-06-30T09:04:43.349Z,https://parking.npc-npc.co.jp/p/14/755
NPC,NPC24H府中第3パーキング,東京都,東京都府中市宮西町1-1-5,4,1100,2200,600,35.67229403,139.47844,2026-06-30T09:04:43.349Z,https://parking.npc-npc.co.jp/p/13/706
NPC,NPC24H八坂駅前パーキング,東京都,東京都東村山市栄町3-29-2,6,220,900,,35.74643973,139.4666956,2026-06-30T09:04:43.349Z,https://parking.npc-npc.co.jp/p/13/713
NPC,NPC24Hワンズプラザパーキング,東京都,東京都東村山市野口町1-46,83,300,800,,35.75976856,139.4653186,2026-06-30T09:04:43.349Z,https://parking.npc-npc.co.jp/p/13/713
NPC,NPC24H新所沢駅前パーキング,埼玉県,埼玉県所沢市松葉町16-12,23,900,1600,500,35.80803664,139.4576963,2026-06-30T09:04:43.349Z,https://parking.npc-npc.co.jp/p/11/559
NPC,J・PARK湘南信金深沢支店,神奈川県,神奈川県鎌倉市常盤82番地,6,1200,1000,500,35.33096168,139.5175261,2026-06-30T09:04:43.349Z,https://parking.npc-npc.co.jp/p/14/774
NPC,NPC FLAT小平パーキング,東京都,東京都小平市小川東町3-30,188,,600,,35.74248886,139.47221883,2026-06-30T09:04:43.349Z,https://parking.npc-npc.co.jp/p/13/711
NPC,NPC24H一橋病院第1駐車場,東京都,東京都小平市学園西町1-2-25,38,400,600,300,35.71747968,139.4791283,2026-06-30T09:04:43.349Z,https://parking.npc-npc.co.jp/p/13/711
NPC,NPC24H一橋病院第2駐車場,東京都,東京都小平市学園西町1-2-25,25,400,600,300,35.71804491,139.4795521,2026-06-30T09:04:43.349Z,https://parking.npc-npc.co.jp/p/13/711
NPC,NPC24H学園東町パーキング,東京都,東京都小平市学園東町1-4,7,900,900,500,35.72314584,139.4810248,2026-06-30T09:04:43.349Z,https://parking.npc-npc.co.jp/p/13/711
NPC,NPC24H南大塚駅前第3パーキング,埼玉県,埼玉県川越市南台2丁目2-58付近,9,220,1000,,35.89065537,139.4516541,2026-06-30T09:04:43.349Z,https://parking.npc-npc.co.jp/p/11/554
NPC,NPC24H南大塚駅前第2パーキング,埼玉県,埼玉県川越市南台2-1-48,7,200,800,400,35.88969179,139.4528313,2026-06-30T09:04:43.349Z,https://parking.npc-npc.co.jp/p/11/554
NPC,ハロー浦佐,新潟県,新潟県南魚沼市浦佐592-4,56,,1100,,37.16857091,138.9226179,2026-06-30T09:04:43.349Z,https://parking.npc-npc.co.jp/p/15/829
NPC,J・PARK東府中,東京都,東京都府中市清水が丘1-9,7,440,1300,400,35.66858011,139.4951295,2026-06-30T09:04:43.349Z,https://parking.npc-npc.co.jp/p/13/706
NPC,NPC24H府中天神町パーキング,東京都,東京都府中市天神町4-30-1,6,880,1200,400,35.6847553,139.4948771,2026-06-30T09:04:43.349Z,https://parking.npc-npc.co.jp/p/13/706
NPC,NPC24H大船駅前パーキング,神奈川県,神奈川県鎌倉市大船1-3-9,256,400,,900,35.3500332,139.5308643,2026-06-30T09:04:43.349Z,https://parking.npc-npc.co.jp/p/14/774
NPC,NPC24H戸塚町第2パーキング,神奈川県,神奈川県横浜市戸塚区戸塚町4005,3,880,,800,35.39900855,139.5311719,2026-06-30T09:04:43.349Z,https://parking.npc-npc.co.jp/p/14/751
NPC,NPC24H ONE FOR ALL 横浜パーキング,神奈川県,神奈川県横浜市戸塚区戸塚町157-3,31,600,2000,400,35.39625846,139.53256833,2026-06-30T09:04:43.349Z,https://parking.npc-npc.co.jp/p/14/751
NPC,NPC24H小平市鈴木町パーキング,東京都,東京都小平市鈴木町1-158-3、160,22,220,900,,35.72580461,139.496214,2026-06-30T09:04:43.349Z,https://parking.npc-npc.co.jp/p/13/711
NPC,NPC24H二俣川パーキング,神奈川県,神奈川県横浜市旭区二俣川1-45,8,660,,600,35.46497608,139.5310866,2026-06-30T09:04:43.349Z,https://parking.npc-npc.co.jp/p/14/753
NPC,NPC24H都立多摩北部医療センター外来駐車場,東京都,東京都東村山市青葉町1丁目7-1,136,440,100,,35.76136337,139.49230032,2026-06-30T09:04:43.349Z,https://parking.npc-npc.co.jp/p/13/713
NPC,由比ガ浜地下駐車場,神奈川県,神奈川県鎌倉市由比ガ浜4-7-1,185,420,,1040,35.30944274,139.54373436,2026-06-30T09:04:43.349Z,https://parking.npc-npc.co.jp/p/14/774
NPC,NPC24H武蔵小金井第3パーキング,東京都,東京都小金井市本町5-9-10,10,660,1100,200,35.70176455,139.50342647,2026-06-30T09:04:43.349Z,https://parking.npc-npc.co.jp/p/13/710
NPC,NPC24H武蔵小金井第2パーキング,東京都,東京都小金井市本町5-22,14,440,1200,400,35.70397401,139.5056082,2026-06-30T09:04:43.349Z,https://parking.npc-npc.co.jp/p/13/710
NPC,NPC24H秋津駅南口パーキング,東京都,東京都清瀬市野塩5-292,81,600,700,,35.77769958,139.4967252,2026-06-30T09:04:43.349Z,https://parking.npc-npc.co.jp/p/13/719
NPC,NPC24H小金井リハビリテーション病院第1駐車場,東京都,東京都小金井市前原町1-3-2,34,,,,35.68872354,139.5127234,2026-06-30T09:04:43.349Z,https://parking.npc-npc.co.jp/p/13/710
NPC,NPC24H小金井リハビリテーション病院第2駐車場,東京都,東京都小金井市前原町1-3-27,23,300,,500,35.68942389,139.51300421,2026-06-30T09:04:43.349Z,https://parking.npc-npc.co.jp/p/13/710
NPC,NPC24H白糸台第2パーキング,東京都,東京都府中市白糸台3-15-3,16,330,1000,,35.66484891,139.5174885,2026-06-30T09:04:43.349Z,https://parking.npc-npc.co.jp/p/13/706
NPC,NPC24H材木座4丁目パーキング,神奈川県,神奈川県鎌倉市材木座4-4-21,10,440,1200,500,35.30748597,139.5527164,2026-06-30T09:04:43.349Z,https://parking.npc-npc.co.jp/p/14/774
NPC,NPC24H桂町パーキング,神奈川県,神奈川県横浜市栄区桂町159-5,10,660,1700,400,35.36172967,139.55118794,2026-06-30T09:04:43.349Z,https://parking.npc-npc.co.jp/p/14/756
NPC,NPC24H白糸台第3パーキング,東京都,東京都府中市白糸台6-5-1,12,440,1000,,35.6636003,139.5198573,2026-06-30T09:04:43.349Z,https://parking.npc-npc.co.jp/p/13/706
NPC,NPC24H川越駅西口パーキング,埼玉県,埼玉県川越市旭町1-3-71,11,,800,500,35.90262322,139.4771135,2026-06-30T09:04:43.349Z,https://parking.npc-npc.co.jp/p/11/554
NPC,NPC24H鶴ヶ峰駅前パーキング,神奈川県,神奈川県横浜市旭区鶴ヶ峰1-20,13,660,1200,,35.47446292,139.5482289,2026-06-30T09:04:43.349Z,https://parking.npc-npc.co.jp/p/14/753
NPC,NPC24H東戸塚パーキング,神奈川県,神奈川県横浜市戸塚区川上町88-14,9,660,,800,35.43231219,139.5552096,2026-06-30T09:04:43.349Z,https://parking.npc-npc.co.jp/p/14/751
NPC,NPC24Hオリンピック東戸塚店パーキング,神奈川県,神奈川県横浜市戸塚区川上町52-1,586,,,300,35.42796655,139.5557211,2026-06-30T09:04:43.349Z,https://parking.npc-npc.co.jp/p/14/751
NPC,NPC24H本川越駅前パーキング,埼玉県,埼玉県川越市新富町1-13-1付近,22,400,1200,700,35.91543628,139.4836848,2026-06-30T09:04:43.349Z,https://parking.npc-npc.co.jp/p/11/554
NPC,NPC24Hまるひろ東口立体駐車場,埼玉県,埼玉県川越市新富町2丁目19番,164,400,600,,35.91373316,139.4843436,2026-06-30T09:04:43.349Z,https://parking.npc-npc.co.jp/p/11/554
NPC,NPC24Hまるひろ東口第5・第6駐車場,埼玉県,埼玉県川越市通町22-3、23-1他,106,,,,35.9130554,139.48481025,2026-06-30T09:04:43.349Z,https://parking.npc-npc.co.jp/p/11/554
NPC,NPC24Hまるひろ東口第1・第8駐車場,埼玉県,埼玉県川越市通町5-10、他,303,,,,35.91260443,139.48491455,2026-06-30T09:04:43.349Z,https://parking.npc-npc.co.jp/p/11/554
NPC,NPC24H川越大手町パーキング,埼玉県,埼玉県川越市大手町3-4,23,440,600,300,35.92279341,139.4848733,2026-06-30T09:04:43.349Z,https://parking.npc-npc.co.jp/p/11/554
NPC,NPC24H京王閣・京王多摩川駅前パーキング,東京都,東京都調布市多摩川4-36,62,400,400,,35.64409869,139.5353981,2026-06-30T09:04:43.349Z,https://parking.npc-npc.co.jp/p/13/708
NPC,NPC24H逗子黒門駐車場,神奈川県,神奈川県逗子市新宿1-4-7,36,1000,,,35.29061361,139.5738443,2026-06-30T09:04:43.349Z,https://parking.npc-npc.co.jp/p/14/778
NPC,NPC24Hレッドロブスター逗子店パーキング,神奈川県,神奈川県逗子市桜山8-11-11,23,300,,500,35.28753939,139.5745527,2026-06-30T09:04:43.349Z,https://parking.npc-npc.co.jp/p/14/778
NPC,NPC24H調布第1パーキング,東京都,東京都調布市小島町1-32-4,40,600,,,35.65377892,139.5416678,2026-06-30T09:04:43.349Z,https://parking.npc-npc.co.jp/p/13/708
NPC,J・PARK小島町,東京都,東京都調布市小島町1-32,15,600,,,35.6537521,139.5417856,2026-06-30T09:04:43.349Z,https://parking.npc-npc.co.jp/p/13/708
NPC,NPC24Hオーケー逗子店パーキング,神奈川県,神奈川県逗子市逗子1-11-17,124,400,1600,500,35.29693511,139.5758566,2026-06-30T09:04:43.349Z,https://parking.npc-npc.co.jp/p/14/778
NPC,NPC24Hグランケアあざみ野パーキング,神奈川県,神奈川県横浜市青葉区新石川1-7-1,8,800,1600,600,35.56941051,139.5549662,2026-06-30T09:04:43.349Z,https://parking.npc-npc.co.jp/p/14/758
NPC,NPC24H調布第4パーキング,東京都,東京都調布市布田1-26-10,7,990,,,35.65272164,139.5457171,2026-06-30T09:04:43.349Z,https://parking.npc-npc.co.jp/p/13/708
NPC,NPC24H吹上駅北口パーキング,埼玉県,埼玉県鴻巣市吹上本町2丁目12-21,24,200,350,,36.1041481,139.4555864,2026-06-30T09:04:43.349Z,https://parking.npc-npc.co.jp/p/11/567
NPC,J・PARK田無第3,東京都,東京都西東京市田無町5-7-10,30,400,,600,35.73053769,139.5367461,2026-06-30T09:04:43.349Z,https://parking.npc-npc.co.jp/p/13/726
NPC,NPC24H上福岡第1パーキング,埼玉県,埼玉県ふじみ野市上福岡1-7,13,600,1300,400,35.87529398,139.5126336,2026-06-30T09:04:43.349Z,https://parking.npc-npc.co.jp/p/11/591
NPC,NPC24H西原町パーキング,東京都,東京都西東京市西原町1-2,8,440,,400,35.73205882,139.5397613,2026-06-30T09:04:43.349Z,https://parking.npc-npc.co.jp/p/13/726
NPC,NPC24H田無駅前パーキング,東京都,東京都西東京市田無町2-11-1,6,480,,400,35.72768552,139.5413643,2026-06-30T09:04:43.349Z,https://parking.npc-npc.co.jp/p/13/726
NPC,NPC24Hひばりが丘第2パーキング,東京都,東京都西東京市ひばりが丘1-11-12,7,220,700,300,35.74930736,139.538651,2026-06-30T09:04:43.349Z,https://parking.npc-npc.co.jp/p/13/726
NPC,NPC24H日野2丁目パーキング,神奈川県,神奈川県横浜市港南区日野2-48-14,14,440,1100,400,35.40169159,139.58103316,2026-06-30T09:04:43.349Z,https://parking.npc-npc.co.jp/p/14/752
NPC,NPC24H向ヶ丘遊園駅北口第5パーキング,神奈川県,神奈川県川崎市多摩区登戸1658,20,440,1000,400,35.61770782,139.55943608,2026-06-30T09:04:43.349Z,https://parking.npc-npc.co.jp/p/14/765
NPC,NPC24H上星川パーキング,神奈川県,神奈川県横浜市保土ケ谷区上星川2-9,8,660,1400,500,35.47191328,139.5759759,2026-06-30T09:04:43.349Z,https://parking.npc-npc.co.jp/p/14/747
NPC,NPC24H向ヶ丘遊園駅北口第4パーキング,神奈川県,神奈川県川崎市多摩区登戸1650,15,440,1000,400,35.61744079,139.55975671,2026-06-30T09:04:43.349Z,https://parking.npc-npc.co.jp/p/14/765
NPC,NPC24H田無第2パーキング,東京都,東京都西東京市田無町2-19-1,5,600,,,35.72789823,139.5437947,2026-06-30T09:04:43.349Z,https://parking.npc-npc.co.jp/p/13/726
NPC,NPC24H田無第4パーキング,東京都,東京都西東京市田無町2-15,3,330,1300,500,35.72825965,139.5442366,2026-06-30T09:04:43.349Z,https://parking.npc-npc.co.jp/p/13/726
NPC,NPC24H向ヶ丘遊園駅北口第1パーキング,神奈川県,神奈川県川崎市多摩区登戸1874-3,39,440,1400,400,35.61819468,139.56353379,2026-06-30T09:04:43.349Z,https://parking.npc-npc.co.jp/p/14/765
NPC,NPC24H向ヶ丘遊園駅北口第3パーキング,神奈川県,神奈川県川崎市多摩区登戸1842,8,440,800,300,35.61946163,139.56339575,2026-06-30T09:04:43.349Z,https://parking.npc-npc.co.jp/p/14/765
NPC,NPC24H向ヶ丘遊園駅北口第2パーキング,神奈川県,神奈川県川崎市多摩区登戸1864,22,440,,300,35.6189842,139.56362869,2026-06-30T09:04:43.349Z,https://parking.npc-npc.co.jp/p/14/765
NPC,センター南駅光ビル駐輪場,神奈川県,神奈川県横浜市都筑区茅ケ崎中央1-2,342,,300,,35.54504606,139.57476262,2026-06-30T09:04:43.349Z,https://parking.npc-npc.co.jp/p/14/759
NPC,センター南駅光ビル駐車場,神奈川県,神奈川県横浜市都筑区茅ケ崎中央1-2,741,300,800,300,35.54500905,139.5748507,2026-06-30T09:04:43.349Z,https://parking.npc-npc.co.jp/p/14/759
NPC,NPC24Hコーナン港北センター南モールパーキング,神奈川県,神奈川県横浜市都筑区茅ヶ崎中央53-1,677,300,800,,35.54656748,139.5754757,2026-06-30T09:04:43.349Z,https://parking.npc-npc.co.jp/p/14/759
NPC,NPC24Hひばりが丘北3丁目パーキング,東京都,東京都西東京市ひばりが丘北3-4-20,17,440,800,400,35.75233655,139.54664457,2026-06-30T09:04:43.349Z,https://parking.npc-npc.co.jp/p/13/726
NPC,NPC24Hひばりが丘パーキング,埼玉県,埼玉県新座市栗原5-12-22,9,480,1000,500,35.7544318,139.5473534,2026-06-30T09:04:43.349Z,https://parking.npc-npc.co.jp/p/11/578
NPC,NPC24H北鴻巣駅西口パーキング,埼玉県,埼玉県鴻巣市すみれ野15-3,19,,1000,400,36.08490038,139.47728,2026-06-30T09:04:43.349Z,https://parking.npc-npc.co.jp/p/11/567
NPC,NPC24H荒崎公園駐車場,神奈川県,神奈川県横須賀市長井6-30,89,,0,,35.19577589,139.60138606,2026-06-30T09:04:43.349Z,https://parking.npc-npc.co.jp/p/14/772
NPC,NPC24H菅田町パーキング,神奈川県,神奈川県横浜市神奈川区菅田町923,5,440,1800,500,35.50098771,139.5842585,2026-06-30T09:04:43.349Z,https://parking.npc-npc.co.jp/p/14/743
NPC,NPC24H柴崎パーキング,東京都,東京都調布市柴崎2-2-6,25,440,600,400,35.6597576,139.565089,2026-06-30T09:04:43.349Z,https://parking.npc-npc.co.jp/p/13/708
NPC,NPC24H西武柳沢パーキング,東京都,東京都西東京市柳沢1-1,4,440,1100,500,35.72863096,139.5546253,2026-06-30T09:04:43.349Z,https://parking.npc-npc.co.jp/p/13/726
NPC,NPC24H洋光台3丁目パーキング,神奈川県,神奈川県横浜市磯子区洋光台3-12-31,9,440,1000,400,35.38181706,139.5946636,2026-06-30T09:04:43.349Z,https://parking.npc-npc.co.jp/p/14/748
NPC,NPC24H保谷町パーキング,東京都,東京都西東京市保谷町2-11-17,8,330,1000,400,35.73005803,139.5549905,2026-06-30T09:04:43.349Z,https://parking.npc-npc.co.jp/p/13/726
NPC,NPC24Hオリンピック洋光台店パーキング,神奈川県,神奈川県横浜市磯子区洋光台5-1-9,226,,,500,35.37731943,139.5953699,2026-06-30T09:04:43.349Z,https://parking.npc-npc.co.jp/p/14/748
NPC,NPC24H上大岡第2パーキング,神奈川県,神奈川県横浜市港南区大久保1-13-11,10,660,,600,35.40934525,139.5932716,2026-06-30T09:04:43.349Z,https://parking.npc-npc.co.jp/p/14/752
NPC,NPC24H土橋2丁目パーキング,神奈川県,神奈川県川崎市宮前区土橋2-1-13,7,440,1300,500,35.58499541,139.57820053,2026-06-30T09:04:43.349Z,https://parking.npc-npc.co.jp/p/14/766
NPC,NPC24H武蔵野緑町パーキング,東京都,東京都武蔵野市緑町1-3-21,29,528,1300,500,35.71471841,139.5634087,2026-06-30T09:04:43.349Z,https://parking.npc-npc.co.jp/p/13/703
NPC,NPC24H保土ヶ谷第2パーキング,神奈川県,神奈川県横浜市保土ケ谷区帷子町2-79,13,440,1500,600,35.44698072,139.5977597,2026-06-30T09:04:43.349Z,https://parking.npc-npc.co.jp/p/14/747
NPC,NPC24Hソレイユの丘第1駐車場,神奈川県,神奈川県横須賀市長井4丁目,134,,2500,,35.19679718,139.61144403,2026-06-30T09:04:43.349Z,https://parking.npc-npc.co.jp/p/14/772
NPC,NPC24H下連雀1丁目第2 パーキング,東京都,東京都三鷹市下連雀1-9-14,5,528,1500,400,35.69130579,139.5697377,2026-06-30T09:04:43.349Z,https://parking.npc-npc.co.jp/p/13/704
NPC,NPC24Hソレイユの丘第2駐車場,神奈川県,神奈川県横須賀市長井4丁目,1342,,2500,,35.19754865,139.61265909,2026-06-30T09:04:43.349Z,https://parking.npc-npc.co.jp/p/14/772
NPC,NPC24H保土ヶ谷第3パーキング,神奈川県,神奈川県横浜市保土ケ谷区岩間町2-111,14,660,1300,300,35.45018069,139.60057645,2026-06-30T09:04:43.349Z,https://parking.npc-npc.co.jp/p/14/747
NPC,NPC24Hソレイユの丘第3駐車場,神奈川県,神奈川県横須賀市長井4丁目,191,,2500,,35.19468828,139.61436766,2026-06-30T09:04:43.349Z,https://parking.npc-npc.co.jp/p/14/772
NPC,NPC24H新横浜リハビリテーション病院駐車場,神奈川県,神奈川県横浜市神奈川区菅田町2628-4,100,440,700,400,35.49730389,139.59702047,2026-06-30T09:04:43.349Z,https://parking.npc-npc.co.jp/p/14/743
NPC,NPC24H宮前平パーキング,神奈川県,神奈川県川崎市宮前区宮前平1-4-10,19,900,900,300,35.58373676,139.5881806,2026-06-30T09:04:43.349Z,https://parking.npc-npc.co.jp/p/14/766
NPC,NPC24Hいなげや練馬関町店パーキング,東京都,東京都練馬区関町南4-19-8,75,400,,300,35.72219413,139.5688049,2026-06-30T09:04:43.349Z,https://parking.npc-npc.co.jp/p/13/697
NPC,NPC24H北山田駅地下パーキング,神奈川県,神奈川県横浜市都筑区北山田1-9-3,38,300,900,,35.56198071,139.5930842,2026-06-30T09:04:43.349Z,https://parking.npc-npc.co.jp/p/14/759
NPC,NPC24H保谷第2パーキング,東京都,東京都練馬区南大泉3-31-23,17,600,,500,35.74755919,139.5671003,2026-06-30T09:04:43.349Z,https://parking.npc-npc.co.jp/p/13/697
NPC,NPC24H保谷第3パーキング,東京都,東京都練馬区南大泉3-29,28,440,1300,500,35.7476395,139.5681277,2026-06-30T09:04:43.349Z,https://parking.npc-npc.co.jp/p/13/697
NPC,NPC24H保谷第1パーキング,東京都,東京都練馬区南大泉3-27-5,26,528,900,400,35.74708186,139.5688742,2026-06-30T09:04:43.349Z,https://parking.npc-npc.co.jp/p/13/697
NPC,NPC24H調布緑ヶ丘パーキング,東京都,東京都調布市緑ヶ丘1-1-1,53,600,700,,35.66522356,139.5822931,2026-06-30T09:04:43.349Z,https://parking.npc-npc.co.jp/p/13/708
NPC,NPC24H関町北第3パーキング,東京都,東京都練馬区関町北2-5-3,9,440,,400,35.72370965,139.5735512,2026-06-30T09:04:43.349Z,https://parking.npc-npc.co.jp/p/13/697
NPC,NPC24H吉祥寺第5パーキング,東京都,東京都武蔵野市吉祥寺本町2-28-18,7,880,3000,600,35.70626158,139.5763968,2026-06-30T09:04:43.349Z,https://parking.npc-npc.co.jp/p/13/703
NPC,NPC24H吉祥寺本町2丁目パーキング,東京都,東京都武蔵野市吉祥寺本町2-12-8,8,2000,,500,35.70480652,139.5767899,2026-06-30T09:04:43.349Z,https://parking.npc-npc.co.jp/p/13/703
NPC,NPC24Hオーケー北山田店パーキング,神奈川県,神奈川県横浜市都筑区北山田1-14-1,304,880,800,,35.56074246,139.59641242,2026-06-30T09:04:43.349Z,https://parking.npc-npc.co.jp/p/14/759
NPC,NPC24H調布仙川町パーキング,東京都,東京都調布市仙川町3丁目2-45,32,660,1300,500,35.66399055,139.5835635,2026-06-30T09:04:43.349Z,https://parking.npc-npc.co.jp/p/13/708
NPC,NPC24Hいなげや調布仙川店パーキング,東京都,東京都調布市仙川町3-4-1,158,600,,,35.66506684,139.583435,2026-06-30T09:04:43.349Z,https://parking.npc-npc.co.jp/p/13/708
NPC,NPC24H関町北第4パーキング,東京都,東京都練馬区関町北2-9,5,528,1800,500,35.72504453,139.5768248,2026-06-30T09:04:43.349Z,https://parking.npc-npc.co.jp/p/13/697
NPC,NPC24H川崎宮崎パーキング,神奈川県,神奈川県川崎市宮前区宮崎275-1,10,330,1000,300,35.58650762,139.5964693,2026-06-30T09:04:43.349Z,https://parking.npc-npc.co.jp/p/14/766
NPC,ヒルトップモールパーキング(1F),神奈川県,神奈川県横浜市磯子区磯子3-13-2,101,300,800,,35.40260464,139.614622,2026-06-30T09:04:43.349Z,https://parking.npc-npc.co.jp/p/14/748
NPC,ヒルトップモールパーキング（4F）,神奈川県,神奈川県横浜市磯子区磯子3-13-2,12,300,1000,,35.40263719,139.6146415,2026-06-30T09:04:43.349Z,https://parking.npc-npc.co.jp/p/14/748
NPC,NPC24H杉田3丁目パーキング,神奈川県,神奈川県横浜市磯子区杉田3-1-4,5,440,900,500,35.38234079,139.61637886,2026-06-30T09:04:43.349Z,https://parking.npc-npc.co.jp/p/14/748
NPC,NPC24H浅間町パーキング,神奈川県,神奈川県横浜市西区浅間町2-105,5,440,,500,35.46404815,139.6099922,2026-06-30T09:04:43.349Z,https://parking.npc-npc.co.jp/p/14/744
NPC,NPC24H湘南信金杉田支店パーキング,神奈川県,神奈川県横浜市磯子区杉田1-19-17,3,800,1000,500,35.38431516,139.616553,2026-06-30T09:04:43.349Z,https://parking.npc-npc.co.jp/p/14/748
NPC,東京シティーパーク(FH)喜多見第2駐車場,東京都,東京都世田谷区喜多見4-36-15,5,300,900,300,35.63244547,139.5920657,2026-06-30T09:04:43.349Z,https://parking.npc-npc.co.jp/p/13/689
NPC,NPC24H石神井台第4パーキング,東京都,東京都練馬区石神井台7-27,7,440,1400,400,35.7321878,139.5772336,2026-06-30T09:04:43.349Z,https://parking.npc-npc.co.jp/p/13/697
NPC,NPC24H吉祥寺第2パーキング,東京都,東京都武蔵野市吉祥寺南町2-20,9,880,2000,800,35.7006194,139.5842068,2026-06-30T09:04:43.349Z,https://parking.npc-npc.co.jp/p/13/703
NPC,NPC24H関町東パーキング,東京都,東京都練馬区関町東1-22,19,528,1000,500,35.72462786,139.5809063,2026-06-30T09:04:43.349Z,https://parking.npc-npc.co.jp/p/13/697
NPC,NPC24H岡野1丁目パーキング,神奈川県,神奈川県横浜市西区岡野1-15-16,4,660,1600,700,35.4636471,139.61455,2026-06-30T09:04:43.349Z,https://parking.npc-npc.co.jp/p/14/744
NPC,NPC24H睦町1丁目パーキング,神奈川県,神奈川県横浜市南区睦町1-14-5,8,300,1000,400,35.4327294,139.618745,2026-06-30T09:04:43.349Z,https://parking.npc-npc.co.jp/p/14/746
NPC,NPC24H横浜北幸第2パーキング,神奈川県,神奈川県横浜市西区北幸2-10-2,202,600,1500,900,35.46622819,139.616108,2026-06-30T09:04:43.349Z,https://parking.npc-npc.co.jp/p/14/744
NPC,NPC24H横浜二葉町パーキング,神奈川県,神奈川県横浜市南区二葉町3-28,15,600,,500,35.43413775,139.6192237,2026-06-30T09:04:43.349Z,https://parking.npc-npc.co.jp/p/14/746
NPC,NPC24H CeeU Yokohamaパーキング,神奈川県,神奈川県横浜市西区南幸2丁目16-1,91,900,1500,,35.4641148,139.61687958,2026-06-30T09:04:43.349Z,https://parking.npc-npc.co.jp/p/14/744
NPC,NPC24H長岡殿町3丁目第2パーキング,新潟県,新潟県長岡市殿町3丁目4-16,26,300,,,37.44613912,138.8473159,2026-06-30T09:04:43.349Z,https://parking.npc-npc.co.jp/p/15/812
NPC,NPC24H長岡殿町3丁目パーキング,新潟県,新潟県長岡市殿町3丁目4-3・4-4・4-25・4-26・4-27,26,300,,,37.44563073,138.8480082,2026-06-30T09:04:43.349Z,https://parking.npc-npc.co.jp/p/15/812
NPC,NPC24H梶が谷パーキング,神奈川県,神奈川県川崎市高津区末長1-44,5,400,1400,500,35.59086073,139.6049099,2026-06-30T09:04:43.349Z,https://parking.npc-npc.co.jp/p/14/764
NPC,長岡市営表町駐車場,新潟県,新潟県長岡市表町1丁目10-15,40,200,1000,,37.44823039,138.8470562,2026-06-30T09:04:43.349Z,https://parking.npc-npc.co.jp/p/15/812
NPC,NPC24H吉祥寺東町第2パーキング,東京都,東京都武蔵野市吉祥寺東町3-6-5,4,220,,600,35.708886,139.58962,2026-06-30T09:04:43.349Z,https://parking.npc-npc.co.jp/p/13/703
NPC,大手通り地下駐車場,新潟県,新潟県長岡市大手通1丁目および2丁目,68,200,1000,,37.44828083,138.84795862,2026-06-30T09:04:43.349Z,https://parking.npc-npc.co.jp/p/15/812
NPC,NPC24H西中町パーキング,神奈川県,神奈川県横浜市南区西中町1丁目19,5,660,1400,500,35.4411293,139.6217089,2026-06-30T09:04:43.349Z,https://parking.npc-npc.co.jp/p/14/746
NPC,NPC24H三崎口駅前パーキング,神奈川県,神奈川県三浦市初声町下宮田601,49,330,1000,400,35.17740067,139.63438,2026-06-30T09:04:43.349Z,https://parking.npc-npc.co.jp/p/14/779
NPC,NPC24H新横浜第4パーキング,神奈川県,神奈川県横浜市港北区篠原町3053-3,23,330,1200,700,35.50484335,139.6163456,2026-06-30T09:04:43.349Z,https://parking.npc-npc.co.jp/p/14/750
NPC,NPC24H新横浜第6パーキング,神奈川県,神奈川県横浜市港北区篠原町3053-1,12,330,1500,,35.50498618,139.6164419,2026-06-30T09:04:43.349Z,https://parking.npc-npc.co.jp/p/14/750
NPC,NPC24H成城1丁目パーキング,東京都,東京都世田谷区成城1丁目22-9,6,660,1700,400,35.63566125,139.60145086,2026-06-30T09:04:43.349Z,https://parking.npc-npc.co.jp/p/13/689
NPC,NPC24H梶が谷駅前パーキング,神奈川県,神奈川県川崎市高津区末長1-21-1,7,440,1300,600,35.59411445,139.6070077,2026-06-30T09:04:43.349Z,https://parking.npc-npc.co.jp/p/14/764
NPC,NPC24H志木第2パーキング,埼玉県,埼玉県新座市東北2-13,36,330,700,400,35.81835865,139.5727057,2026-06-30T09:04:43.349Z,https://parking.npc-npc.co.jp/p/11/578
NPC,NPC24H米百俵プレイス駐車場,新潟県,新潟県長岡市坂之上町2丁目3-20,299,300,800,500,37.4486045,138.85004537,2026-06-30T09:04:43.349Z,https://parking.npc-npc.co.jp/p/15/812
NPC,NPC24H長岡表町3丁目パーキング,新潟県,新潟県長岡市表町3-2-13,25,300,700,400,37.45021243,138.8490749,2026-06-30T09:04:43.349Z,https://parking.npc-npc.co.jp/p/15/812
NPC,NPC24H長岡大手駐車場,新潟県,新潟県長岡市大手通一丁目1-1,137,500,3250,,37.44611838,138.8522917,2026-06-30T09:04:43.349Z,https://parking.npc-npc.co.jp/p/15/812
NPC,NPC24H吉祥寺東町パーキング,東京都,東京都武蔵野市吉祥寺東町4-7-9,17,330,700,300,35.70629054,139.5926457,2026-06-30T09:04:43.349Z,https://parking.npc-npc.co.jp/p/13/703
NPC,NPC24H長岡台町1丁目パーキング,新潟県,新潟県長岡市台町1-4,8,200,,,37.44417349,138.8541068,2026-06-30T09:04:43.349Z,https://parking.npc-npc.co.jp/p/15/812
NPC,NPC24H長岡大手通1丁目パーキング,新潟県,新潟県長岡市大手通1丁目3-1・1丁目3-16,31,400,,,37.44724329,138.8523362,2026-06-30T09:04:43.349Z,https://parking.npc-npc.co.jp/p/15/812
NPC,NPC24H京急富岡パーキング,神奈川県,神奈川県横浜市金沢区富岡東6-1-26,13,400,,500,35.36721247,139.6303001,2026-06-30T09:04:43.349Z,https://parking.npc-npc.co.jp/p/14/749
NPC,NPC24H長岡駅大手口自動車整理場,新潟県,新潟県長岡市城内町2丁目6-2,43,,,,37.44670277,138.85305783,2026-06-30T09:04:43.349Z,https://parking.npc-npc.co.jp/p/15/812
NPC,NPC24H長岡城内町2丁目第2パーキング,新潟県,新潟県長岡市城内町2-5-1,39,267,1000,,37.44884299,138.8516386,2026-06-30T09:04:43.349Z,https://parking.npc-npc.co.jp/p/15/812
NPC,NPC24H溝の口駅前第2パーキング,神奈川県,神奈川県川崎市高津区下作延2-1-1,18,1650,,1100,35.59955167,139.60868003,2026-06-30T09:04:43.349Z,https://parking.npc-npc.co.jp/p/14/764
NPC,NPC24H長岡台町2丁目第2パーキング,新潟県,新潟県長岡市台町2-3-7付近,30,300,1000,,37.44593617,138.8547976,2026-06-30T09:04:43.349Z,https://parking.npc-npc.co.jp/p/15/812
NPC,NPC24H上石神井第7パーキング,東京都,東京都練馬区上石神井1-13-20,2,660,,,35.72563519,139.591543,2026-06-30T09:04:43.349Z,https://parking.npc-npc.co.jp/p/13/697
NPC,NPC24H長岡台町2丁目パーキング,新潟県,新潟県長岡市台町2-2-18,8,300,,,37.44549255,138.8553394,2026-06-30T09:04:43.349Z,https://parking.npc-npc.co.jp/p/15/812
NPC,NPC24H久我山4丁目パーキング,東京都,東京都杉並区久我山4-42-24,7,880,1500,500,35.69253388,139.59695708,2026-06-30T09:04:43.349Z,https://parking.npc-npc.co.jp/p/13/692
NPC,NPC24H長岡城内町1F駐車場,新潟県,新潟県長岡市城内町1丁目611-1 長岡駅構内CoCoLo1階食品館脇,63,500,2000,,37.44857043,138.8539614,2026-06-30T09:04:43.349Z,https://parking.npc-npc.co.jp/p/15/812
NPC,長岡市営大手口駐車場,新潟県,新潟県長岡市城内町3丁目893-32,191,200,1000,,37.44912407,138.85394531,2026-06-30T09:04:43.349Z,https://parking.npc-npc.co.jp/p/15/812
NPC,NPC24H石神井台パーキング,東京都,東京都練馬区石神井台2-15-5,6,330,1200,400,35.73535634,139.5911216,2026-06-30T09:04:43.349Z,https://parking.npc-npc.co.jp/p/13/697
